{"version": 0.6, "generator": "Overpass API 0.7.62.11 87bfad18", "osm3s": {"timestamp_osm_base": "2026-04-04T00:03:30Z", "copyright": "The data included in this document is from www.openstreetmap.org. The data is made available under ODbL."}, "elements": [{"type": "node", "id": 247973288, "lat": 12.8984603, "lon": 77.6010688, "tags": {"addr:street": "Bannerghatta Road", "amenity": "restaurant", "name": "Snack Corner", "name:kn": "\u0cb8\u0ccd\u0ca8\u0ccd\u0caf\u0cbe\u0c95\u0ccd \u0c95\u0cbe\u0cb0\u0ccd\u0ca8\u0cb0\u0ccd"}}, {"type": "node", "id": 247974238, "lat": 12.8944356, "lon": 77.6024475, "tags": {"amenity": "cafe", "created_by": "JOSM", "name": "Chai-Unchai"}}, {"type": "node", "id": 247976436, "lat": 12.8973119, "lon": 77.6015666, "tags": {"amenity": "restaurant"}}, {"type": "node", "id": 267214379, "lat": 12.9134182, "lon": 77.6774852, "tags": {"amenity": "hospital", "healthcare": "hospital", "name": "Clinic"}}, {"type": "node", "id": 267215655, "lat": 12.9041639, "lon": 77.6756828}, {"type": "node", "id": 267216389, "lat": 12.8854106, "lon": 77.6719884}, {"type": "node", "id": 295766640, "lat": 13.0181973, "lon": 77.5581675, "tags": {"amenity": "police", "check_date": "2025-08-21", "name": "DCP Bangalore North Traffic Police", "wheelchair": "no"}}, {"type": "node", "id": 303924572, "lat": 12.9235041, "lon": 77.5857517, "tags": {"amenity": "hospital", "name": "Shanti Hospital", "name:kn": "\u0cb6\u0cbe\u0c82\u0ca4\u0cbf \u0c86\u0cb8\u0ccd\u0caa\u0ca4\u0ccd\u0cb0\u0cc6"}}, {"type": "node", "id": 303925790, "lat": 12.9285653, "lon": 77.5813657, "tags": {"amenity": "police", "name": "Jayanagar 4th Block Police Station", "name:kn": "\u0c9c\u0caf\u0ca8\u0c97\u0cb0 \u0ca8\u0cbe\u0cb2\u0ccd\u0c95\u0ca8\u0cc7 \u0cb9\u0c82\u0ca4 \u0caa\u0ccb\u0cb2\u0cc0\u0cb8\u0ccd \u0ca0\u0cbe\u0ca3\u0cc6"}}, {"type": "node", "id": 306585721, "lat": 12.9333646, "lon": 77.6230728, "tags": {"addr:street": "Mahayogi Vemana Road", "amenity": "restaurant", "name": "Sukh Sagar", "name:kn": "\u0cb8\u0cc1\u0c96\u0ccd \u0cb8\u0cbe\u0c97\u0cb0"}}, {"type": "node", "id": 306850490, "lat": 12.9163076, "lon": 77.6103158, "tags": {"addr:city": "BTM Layout, Bangalore", "addr:housenumber": "72", "addr:street": "2nd Stage, 16th Main", "amenity": "pub", "name": "Avon Pub"}}, {"type": "node", "id": 307401529, "lat": 12.9263714, "lon": 77.6765455, "tags": {"addr:city": "Belandur, Bangalore", "addr:full": "74/1, Bellandur, Ring Road, Varthur", "addr:housenumber": "74/1", "addr:postcode": "560037", "addr:state": "Karnataka", "addr:street": "Outer Ring Road", "amenity": "hospital", "email": "whitefield@theapolloclinic.com", "healthcare": "hospital", "name": "Apollo Hospital", "name:kn": "\u0c85\u0caa\u0cca\u0cb2\u0ccb \u0c86\u0cb8\u0ccd\u0caa\u0ca4\u0ccd\u0cb0\u0cc6", "phone": "+91-80-40222555", "website": "http://www.apolloclinicbangalore.com/", "wheelchair": "yes"}}, {"type": "node", "id": 307407594, "lat": 12.9210404, "lon": 77.6205458}, {"type": "node", "id": 307413315, "lat": 12.9314045, "lon": 77.5924636, "tags": {"amenity": "pharmacy", "healthcare": "pharmacy"}}, {"type": "node", "id": 308866071, "lat": 12.9155759, "lon": 77.6349897, "tags": {"addr:street": "Outer Ring Road", "amenity": "hospital", "name": "Narayana Hrudayalaya Dental Clinic", "name:kn": "\u0ca8\u0cbe\u0cb0\u0cbe\u0caf\u0ca3 \u0cb9\u0cc3\u0ca6\u0caf\u0cbe\u0cb2\u0caf \u0ca6\u0c82\u0ca4 \u0c86\u0cb8\u0ccd\u0caa\u0ca4\u0ccd\u0cb0\u0cc6"}}, {"type": "node", "id": 310393723, "lat": 12.9129006, "lon": 77.6419101, "tags": {"amenity": "hospital", "healthcare": "hospital", "name": "Dr Ganesh Medical and Diabetic Clinic", "name:kn": "\u0ca1\u0cbe \u0c97\u0ca3\u0cc7\u0cb6\u0ccd \u0cae\u0cc6\u0ca1\u0cbf\u0c95\u0cb2\u0ccd \u0cae\u0ca4\u0ccd\u0ca4\u0cc1 \u0cae\u0ca7\u0cc1\u0cae\u0cc7\u0cb9 \u0c86\u0cb8\u0ccd\u0caa\u0ca4\u0ccd\u0cb0\u0cc6"}}, {"type": "node", "id": 312503506, "lat": 12.9606568, "lon": 77.6385011, "tags": {"amenity": "restaurant", "food": "veg", "name": "Shanti Sagar", "name:kn": "\u0cb6\u0cbe\u0c82\u0ca4\u0cbf \u0cb8\u0cbe\u0c97\u0cb0"}}, {"type": "node", "id": 312507443, "lat": 12.9601717, "lon": 77.6387672, "tags": {"amenity": "pharmacy", "created_by": "Potlatch 0.10f"}}, {"type": "node", "id": 312507653, "lat": 12.9603255, "lon": 77.638371, "tags": {"amenity": "pharmacy"}}, {"type": "node", "id": 312508904, "lat": 12.9619513, "lon": 77.6419064, "tags": {"addr:street": "100 Feet Road", "amenity": "restaurant", "name": "Nandhini", "name:kn": "\u0ca8\u0c82\u0ca6\u0cbf\u0ca8\u0cbf", "wheelchair": "no"}}, {"type": "node", "id": 312595492, "lat": 12.9558995, "lon": 77.6411692, "tags": {"amenity": "restaurant", "name": "Nandhana", "name:kn": "\u0ca8\u0c82\u0ca6\u0ca8"}}, {"type": "node", "id": 314705276, "lat": 12.9741824, "lon": 77.5753745, "tags": {"amenity": "restaurant", "name": "Sukh Sagar", "name:kn": "\u0cb8\u0cc1\u0c96\u0ccd \u0cb8\u0cbe\u0c97\u0cb0"}}, {"type": "node", "id": 316995046, "lat": 12.9600171, "lon": 77.6454021, "tags": {"addr:street": "HAL Airport Road", "amenity": "pharmacy", "name": "Ashwin Pharma"}}, {"type": "node", "id": 316996413, "lat": 12.9605409, "lon": 77.6372314, "tags": {"amenity": "pharmacy", "brand": "MedPlus", "brand:wikidata": "Q65684234", "healthcare": "pharmacy", "name": "MedPlus", "name:kn": "\u0cae\u0cc6\u0ca1\u0ccd \u0caa\u0ccd\u0cb2\u0cb8\u0ccd"}}, {"type": "node", "id": 316996472, "lat": 12.9600511, "lon": 77.6371358, "tags": {"amenity": "pharmacy", "created_by": "Potlatch 0.10f"}}, {"type": "node", "id": 316996475, "lat": 12.9586589, "lon": 77.6375328, "tags": {"amenity": "pharmacy", "created_by": "Potlatch 0.10f"}}, {"type": "node", "id": 316996550, "lat": 12.9581727, "lon": 77.6402029, "tags": {"amenity": "pharmacy"}}, {"type": "node", "id": 316999234, "lat": 12.9651393, "lon": 77.6383211, "tags": {"addr:street": "Paramahansa Yogananda Road", "amenity": "restaurant", "name": "Simply Native"}}, {"type": "node", "id": 316999477, "lat": 12.9686175, "lon": 77.6489441, "tags": {"amenity": "pharmacy", "brand": "Apollo Pharmacy", "brand:wikidata": "Q62562612", "healthcare": "pharmacy", "name": "Apollo Pharmacy", "name:kn": "\u0c85\u0caa\u0cca\u0cb2\u0ccb \u0cab\u0cbe\u0cb0\u0ccd\u0cae\u0cb8\u0cbf"}}, {"type": "node", "id": 317119985, "lat": 12.9543746, "lon": 77.5930172, "tags": {"amenity": "restaurant", "brand": "Adyar Ananda Bhavan", "brand:wikidata": "Q15178238", "name": "Adyar Ananda Bhavan", "name:kn": "\u0c95\u0ca6\u0c82\u0cac \u0cb5\u0cc6\u0c9c\u0ccd", "opening_hours": "PH,Mo-Su 07:00-22:30", "shop": "confectionery", "survey:date": "2024-02-01"}}, {"type": "node", "id": 349291886, "lat": 12.9756318, "lon": 77.6014761, "tags": {"addr:city": "Bangalore", "addr:country": "IN", "addr:housenumber": "39", "addr:postcode": "560001", "addr:street": "Saint Mark's Road", "addr:suburb": "Shanthala Nagar", "amenity": "restaurant", "capacity": "125", "check_date": "2024-08-19", "delivery": "no", "name": "Koshy's", "name:kn": "\u0c95\u0ccb\u0cb6\u0cc0\u0cb8\u0ccd", "official_name": "Koshy's Parade Cafe", "opening_hours": "09:00 - 23:00", "smoking": "no", "start_date": "1952", "takeaway": "yes", "wheelchair": "limited", "wikidata": "Q6433165"}}, {"type": "node", "id": 363167057, "lat": 12.9344837, "lon": 77.6130843, "tags": {"amenity": "pub", "contact:instagram": "senditbob", "delivery": "yes", "name": "Bob's Bar", "takeaway": "yes", "toilets": "yes"}}, {"type": "node", "id": 363198272, "lat": 12.9411707, "lon": 77.621124}, {"type": "node", "id": 363198274, "lat": 12.940811, "lon": 77.6214759}, {"type": "node", "id": 364629422, "lat": 12.9207173, "lon": 77.5745968, "tags": {"addr:street": "Kanakapura Road", "amenity": "hospital", "name": "JBS Hospital", "name:kn": "\u0c9c\u0cc6 \u0cac\u0cbf \u0c8e\u0cb8\u0ccd \u0c86\u0cb8\u0ccd\u0caa\u0ca4\u0ccd\u0cb0\u0cc6"}}, {"type": "node", "id": 364629504, "lat": 12.9198998, "lon": 77.5756807}, {"type": "node", "id": 364629505, "lat": 12.919895, "lon": 77.5759204}, {"type": "node", "id": 364629506, "lat": 12.9197236, "lon": 77.5759168}, {"type": "node", "id": 364629734, "lat": 12.9231684, "lon": 77.584433, "tags": {"amenity": "hospital", "check_date": "2025-01-11", "healthcare": "hospital", "name": "Jayanagar heart Centre"}}, {"type": "node", "id": 364642648, "lat": 12.9169001, "lon": 77.5985958}, {"type": "node", "id": 374217553, "lat": 13.015194, "lon": 77.5723015}, {"type": "node", "id": 374217678, "lat": 13.0152111, "lon": 77.5726673}, {"type": "node", "id": 412118172, "lat": 12.9784387, "lon": 77.6458029}, {"type": "node", "id": 412118174, "lat": 12.9773938, "lon": 77.645857}, {"type": "node", "id": 412118175, "lat": 12.9774333, "lon": 77.6465741}, {"type": "node", "id": 412118177, "lat": 12.9784737, "lon": 77.6465242}, {"type": "node", "id": 413363132, "lat": 12.9566296, "lon": 77.7152069, "tags": {"addr:city": "Bangalore", "addr:street": "ITPL Main Road", "amenity": "restaurant", "cuisine": "indian", "name": "M M A Kababs", "name:kn": "\u0c8e\u0c82 \u0c8e\u0c82 \u0c8e \u0c95\u0cac\u0cbe\u0cac\u0ccd\u0cb8\u0ccd"}}, {"type": "node", "id": 413368456, "lat": 12.9563782, "lon": 77.7108662, "tags": {"addr:housenumber": "35/1A", "addr:postcode": "560037", "addr:street": "Varthur Road", "amenity": "restaurant", "cuisine": "chinese", "phone": "+91-80-28540039"}}, {"type": "node", "id": 423744888, "lat": 12.9782249, "lon": 77.640632, "tags": {"addr:street": "Chinmaya Mission Hospital Road", "amenity": "restaurant", "brand": "Pizza Hut", "brand:wikidata": "Q191615", "brand:wikipedia": "en:Pizza Hut", "check_date": "2025-12-07", "cuisine": "pizza", "diet:vegetarian": "yes", "name": "Pizza Hut", "name:kn": "\u0caa\u0cbf\u0c9f\u0ccd\u0cb8 \u0cb9\u0c9f\u0ccd", "payment:mastercard": "yes", "payment:visa": "yes", "smoking": "no", "source": "survey", "wheelchair": "no"}}, {"type": "node", "id": 423744924, "lat": 12.9754961, "lon": 77.6412437, "tags": {"addr:street": "100 Feet Road(S K Karim Khan Road)", "amenity": "cafe", "brand": "Cafe Coffee Day", "brand:wikidata": "Q5017235", "brand:wikipedia": "en:Caf\u00e9 Coffee Day", "check_date": "2024-01-06", "cuisine": "coffee_shop", "indoor_seating": "yes", "name": "Cafe Coffee Day", "name:kn": "\u0c95\u0cab\u0cc6 \u0c95\u0cbe\u0cab\u0cbf \u0ca1\u0cc7", "outdoor_seating": "yes", "takeaway": "yes", "wheelchair": "no"}}, {"type": "node", "id": 423747691, "lat": 12.9688102, "lon": 77.6021434, "tags": {"addr:city": "Be\u1e45ga\u1e37\u016bru", "addr:neighborhood": "\u015aiv\u0101jinagara", "air_conditioning": "yes", "amenity": "restaurant", "cuisine": "indian;chinese;regional", "diet:vegetarian": "yes", "name": "Kon\u0101rk", "name:kn": "\u0c95\u0cca\u0ca8\u0cbe\u0cb0\u0ccd\u0c95\u0ccd", "phone": "+918041248812"}}, {"type": "node", "id": 426410508, "lat": 13.0299324, "lon": 77.5357131}, {"type": "node", "id": 426926468, "lat": 13.0492109, "lon": 77.547547, "tags": {"amenity": "restaurant", "name": "Kamat Nandanvan", "name:kn": "\u0c95\u0cbe\u0cae\u0ca4\u0ccd \u0ca8\u0c82\u0ca6\u0ca8\u0cb5\u0ca8", "wheelchair": "no"}}, {"type": "node", "id": 428457212, "lat": 12.9697383, "lon": 77.6003775, "tags": {"addr:city": "Bangalore", "addr:country": "IN", "addr:hamlet": "Shanthala Nagar", "addr:housename": "Sophia's Choice", "addr:postcode": "560001", "addr:street": "Saint Mark's Road", "amenity": "cafe", "delivery": "yes", "name": "Old Madras Baking Company", "opening_hours": "08:00-23:00", "operator": "Old Madras Baking Company", "shop": "bakery", "takeaway": "yes"}}, {"type": "node", "id": 428843493, "lat": 12.9762399, "lon": 77.5983458, "tags": {"amenity": "police", "name": "Cubbon Park Police Station", "name:kn": "\u0c95\u0cac\u0ccd\u0cac\u0ca8\u0ccd \u0caa\u0cbe\u0cb0\u0ccd\u0c95\u0ccd \u0c86\u0cb0\u0c95\u0ccd\u0cb7\u0c95 \u0ca0\u0cbe\u0ca3\u0cc6"}}, {"type": "node", "id": 428845624, "lat": 12.9762256, "lon": 77.6014809, "tags": {"addr:street": "Saint Mark's Road", "amenity": "restaurant", "brand": "Hard Rock Cafe", "brand:wikidata": "Q918151", "check_date": "2025-02-24", "cuisine": "american", "diet:vegetarian": "yes", "name": "Hard Rock Cafe", "name:kn": "\u0cb9\u0cbe\u0cb0\u0ccd\u0ca1\u0ccd \u0cb0\u0cbe\u0c95\u0ccd \u0c95\u0cc6\u0cab\u0cc6", "opening_hours": "Mo-Su 12:00-23:30", "payment:cash": "yes", "payment:credit_cards": "yes", "payment:debit_cards": "yes", "wheelchair": "no"}}, {"type": "node", "id": 428851697, "lat": 12.9778503, "lon": 77.5722059, "tags": {"amenity": "restaurant", "cuisine": "South_Indian", "level": "0", "name": "Sri Raghavendra", "name:kn": "\u0cb6\u0ccd\u0cb0\u0cc0 \u0cb0\u0cbe\u0c98\u0cb5\u0cc7\u0c82\u0ca6\u0ccd\u0cb0"}}, {"type": "node", "id": 428857750, "lat": 12.9966811, "lon": 77.5696708, "tags": {"addr:floor": "G", "amenity": "police", "check_date": "2025-12-20", "level": "0", "name": "Maleshwaram Police station", "name:kn": "\u0cae\u0cb2\u0cc7\u0cb6\u0ccd\u0cb5\u0cb0\u0c82 \u0c86\u0cb0\u0c95\u0ccd\u0cb7\u0c95 \u0ca0\u0cbe\u0ca3\u0cc6", "wheelchair": "limited", "wheelchair:description": "slightly steep ramp from footpath to entrance. Internal ramp is proper."}}, {"type": "node", "id": 429697569, "lat": 12.9760075, "lon": 77.5763577, "tags": {"amenity": "restaurant", "name": "Anand Sagar Punjabi Dhaba", "name:kn": "\u0c86\u0ca8\u0c82\u0ca6\u0ccd \u0cb8\u0cbe\u0c97\u0cb0\u0ccd \u0caa\u0c82\u0c9c\u0cbe\u0cac\u0cbf \u0ca1\u0cbe\u0cac\u0cbe"}}, {"type": "node", "id": 429833271, "lat": 12.9550389, "lon": 77.5854279, "tags": {"addr:housenumber": "14", "addr:postcode": "560027", "addr:street": "Lalbagh Road", "alt_name": "MTR", "amenity": "restaurant", "name": "Mavalli Tiffin Rooms", "name:kn": "\u0cae\u0cbe\u0cb5\u0cb3\u0ccd\u0cb3\u0cbf \u0c9f\u0cbf\u0cab\u0cbf\u0ca8\u0ccd \u0cb0\u0cc2\u0cae\u0ccd\u0cb8\u0ccd - \u0c8e\u0c82\u0c9f\u0cbf\u0c86\u0cb0\u0ccd", "opening_hours": "Tu-Su 06:30-11:00, 12:30-21:00", "phone": "+918022220022", "short_name": "MTR", "start_date": "1924", "website": "http://www.mavallitiffinrooms.com", "wheelchair": "no", "wikidata": "Q6794121", "wikimedia_commons": "Category:Mavalli Tiffin Room", "wikipedia": "en:Mavalli Tiffin Room"}}, {"type": "node", "id": 429876582, "lat": 12.9665538, "lon": 77.6141032, "tags": {"addr:housename": "#8", "addr:street": "Victoria Road", "amenity": "restaurant", "level": "0,1", "name": "Hyderbad Biryani House", "name:kn": "\u0cb9\u0cc8\u0ca6\u0cb0\u0cbe\u0cac\u0cbe\u0ca6\u0ccd \u0cac\u0cbf\u0cb0\u0cbf\u0caf\u0cbe\u0ca8\u0cbf \u0cb9\u0ccc\u0cb8\u0ccd"}}, {"type": "node", "id": 443227956, "lat": 12.9417224, "lon": 77.6088495}, {"type": "node", "id": 443612463, "lat": 13.0371728, "lon": 77.6409543, "tags": {"amenity": "hospital", "name": "Sri Vijayalakshmi Pragathi Hospital", "name:kn": "\u0cb6\u0ccd\u0cb0\u0cc0 \u0cb5\u0cbf\u0c9c\u0caf\u0cb2\u0c95\u0ccd\u0cb7\u0ccd\u0cae\u0cc0 \u0caa\u0ccd\u0cb0\u0c97\u0ca4\u0cbf \u0c86\u0cb8\u0ccd\u0caa\u0ca4\u0ccd\u0cb0\u0cc6"}}, {"type": "node", "id": 443646019, "lat": 13.0259923, "lon": 77.6405519, "tags": {"addr:city": "Kalyan Nagar, Bangalore", "addr:housename": "Sri Shankar Reddy Building", "addr:housenumber": "122/4", "addr:postcode": "560043", "addr:street": "Outer Ring Road", "amenity": "restaurant", "name": "Ginger Greens", "name:kn": "\u0c9c\u0cbf\u0c82\u0c9c\u0cb0\u0ccd \u0c97\u0ccd\u0cb0\u0cc0\u0ca8\u0ccd\u0cb8\u0ccd", "opening_hours": "Mo-Su 11:00-23:00", "phone": "+91-80-25434744"}}, {"type": "node", "id": 444380318, "lat": 12.9815025, "lon": 77.5847105}, {"type": "node", "id": 445327548, "lat": 13.0179978, "lon": 77.5588551}, {"type": "node", "id": 446053937, "lat": 13.015694, "lon": 77.563702}, {"type": "node", "id": 446053938, "lat": 13.015691, "lon": 77.5639031}, {"type": "node", "id": 446053939, "lat": 13.0158506, "lon": 77.5639056}, {"type": "node", "id": 446053940, "lat": 13.0158535, "lon": 77.5637044}, {"type": "node", "id": 446995814, "lat": 12.9907411, "lon": 77.5577577, "tags": {"amenity": "bar", "name": "Navarang Bar", "wheelchair": "no"}}, {"type": "node", "id": 454081212, "lat": 13.0310427, "lon": 77.6353019, "tags": {"amenity": "pharmacy", "brand": "MedPlus", "brand:wikidata": "Q65684234", "dispensing": "yes", "healthcare": "pharmacy", "name": "MedPlus", "name:kn": "\u0cae\u0cc6\u0ca1\u0ccd\u200d\u0caa\u0ccd\u0cb2\u0cb8\u0ccd"}}, {"type": "node", "id": 454089105, "lat": 13.0232081, "lon": 77.6362938, "tags": {"amenity": "cafe", "brand": "Cafe Coffee Day", "brand:wikidata": "Q5017235", "cuisine": "coffee_shop", "name": "Cafe Coffee Day", "name:kn": "\u0c95\u0cab\u0cc6 \u0c95\u0cbe\u0cab\u0cbf \u0ca1\u0cc7", "takeaway": "yes"}}, {"type": "node", "id": 454091339, "lat": 13.0261391, "lon": 77.6362268, "tags": {"amenity": "restaurant", "brand": "Pizza Hut", "brand:wikidata": "Q191615", "brand:wikipedia": "en:Pizza Hut", "cuisine": "pizza", "name": "Pizza Hut", "name:kn": "\u0caa\u0cbf\u0c9c\u0ccd\u0c9c\u0cbe \u0cb9\u0c9f\u0ccd"}}, {"type": "node", "id": 454142398, "lat": 13.0185503, "lon": 77.6364728, "tags": {"amenity": "hospital", "name": "Sathya Hospital", "name:kn": "\u0cb8\u0ca4\u0ccd\u0caf \u0c86\u0cb8\u0ccd\u0caa\u0ca4\u0ccd\u0cb0\u0cc6"}}, {"type": "node", "id": 454142399, "lat": 13.0183245, "lon": 77.6364269, "tags": {"amenity": "pharmacy", "dispensing": "yes", "name": "Sathya Medicals"}}, {"type": "node", "id": 454148315, "lat": 13.0194682, "lon": 77.6332105, "tags": {"amenity": "cafe", "internet_access": "terminal", "name": "Thambis's Inetcaf\u00e9"}}, {"type": "node", "id": 454163741, "lat": 13.028839, "lon": 77.6349071, "tags": {"amenity": "cafe", "name": "Cafe Moksh"}}, {"type": "node", "id": 456013713, "lat": 12.920362, "lon": 77.665088}, {"type": "node", "id": 456029893, "lat": 12.9955258, "lon": 77.5717703, "tags": {"amenity": "restaurant", "name": "Hallimane", "name:kn": "\u0cb9\u0cb3\u0ccd\u0cb3\u0cbf\u0cae\u0ca8\u0cc6"}}, {"type": "node", "id": 456039710, "lat": 12.9934872, "lon": 77.5708719}, {"type": "node", "id": 456039711, "lat": 12.993419, "lon": 77.5696323}, {"type": "node", "id": 456039712, "lat": 12.9965469, "lon": 77.5686143}, {"type": "node", "id": 456039713, "lat": 12.9965279, "lon": 77.569993}, {"type": "node", "id": 456039714, "lat": 12.995708, "lon": 77.5699876}, {"type": "node", "id": 456039715, "lat": 12.9956702, "lon": 77.5708417}, {"type": "node", "id": 456204108, "lat": 12.9802182, "lon": 77.5811403}, {"type": "node", "id": 456209036, "lat": 12.9704823, "lon": 77.5844827}, {"type": "node", "id": 456209040, "lat": 12.969032, "lon": 77.5861597}, {"type": "node", "id": 456209041, "lat": 12.9698959, "lon": 77.5870036}, {"type": "node", "id": 456209042, "lat": 12.9716341, "lon": 77.5867497}, {"type": "node", "id": 456209045, "lat": 12.9715663, "lon": 77.5849896}, {"type": "node", "id": 456209046, "lat": 12.9713608, "lon": 77.5852082}, {"type": "node", "id": 456209054, "lat": 12.9726031, "lon": 77.5855842}, {"type": "node", "id": 458105013, "lat": 12.9412769, "lon": 77.5219293}, {"type": "node", "id": 459478506, "lat": 12.9685278, "lon": 77.5952876}, {"type": "node", "id": 459815979, "lat": 12.9685229, "lon": 77.5947891}, {"type": "node", "id": 459815980, "lat": 12.9686018, "lon": 77.5952952}, {"type": "node", "id": 461539222, "lat": 13.0055704, "lon": 77.5713507, "tags": {"addr:street": "Sampige Road", "amenity": "restaurant", "cuisine": "indian", "delivery": "yes", "name": "Adiga's", "name:en": "Brahmin's Coffee Bar", "name:kn": "\u0cac\u0ccd\u0cb0\u0cbe\u0cb9\u0ccd\u0cae\u0cbf\u0ca8\u0ccd\u0cb8\u0ccd \u0c95\u0cbe\u0cab\u0cbf \u0cac\u0cbe\u0cb0\u0ccd", "smoking": "no", "takeaway": "yes", "toilets:wheelchair": "no", "wheelchair": "no"}}, {"type": "node", "id": 469614286, "lat": 12.9870759, "lon": 77.5947417, "tags": {"addr:city": "Bengaluru", "addr:country": "IN", "addr:housename": "Shah Sultan Complex", "addr:housenumber": "17/1", "addr:street": "Cunningham Road", "alt_name": "Dialogues, Infinitea Cunningham Road", "amenity": "cafe", "name": "Infinitea", "operator": "Infinitea"}}, {"type": "node", "id": 491504267, "lat": 12.9880598, "lon": 77.5943063}, {"type": "node", "id": 493493734, "lat": 12.9419229, "lon": 77.5739672}, {"type": "node", "id": 493493737, "lat": 12.9419215, "lon": 77.5743972}, {"type": "node", "id": 493493744, "lat": 12.9424506, "lon": 77.573966}, {"type": "node", "id": 493514796, "lat": 12.9252579, "lon": 77.5916365}, {"type": "node", "id": 493514797, "lat": 12.9252419, "lon": 77.5934322}, {"type": "node", "id": 493530644, "lat": 12.9275602, "lon": 77.5993228}, {"type": "node", "id": 493530647, "lat": 12.9275184, "lon": 77.6003371}, {"type": "node", "id": 493530781, "lat": 12.9408169, "lon": 77.592661}, {"type": "node", "id": 493530784, "lat": 12.9409395, "lon": 77.592126}, {"type": "node", "id": 493530786, "lat": 12.9410122, "lon": 77.5911668}, {"type": "node", "id": 493530788, "lat": 12.9402375, "lon": 77.5909079}, {"type": "node", "id": 493530789, "lat": 12.9397567, "lon": 77.588217}, {"type": "node", "id": 493530791, "lat": 12.9374, "lon": 77.5871527}, {"type": "node", "id": 493530796, "lat": 12.935562, "lon": 77.5900109}, {"type": "node", "id": 493530798, "lat": 12.9363409, "lon": 77.5901535}, {"type": "node", "id": 493530800, "lat": 12.9385991, "lon": 77.5924953}, {"type": "node", "id": 493530801, "lat": 12.9405242, "lon": 77.5924597}, {"type": "node", "id": 514307740, "lat": 12.9918314, "lon": 77.7199673}, {"type": "node", "id": 514314695, "lat": 12.9919585, "lon": 77.7178824, "tags": {"addr:city": "Hoodi, Mahadevapura, Bangalore", "addr:postcode": "560048", "addr:street": "ITPL Main Road, near Hoodi Circle", "amenity": "pharmacy", "name": "Srinivasa Medicals"}}, {"type": "node", "id": 515736893, "lat": 12.9504549, "lon": 77.6999246, "tags": {"addr:city": "Marathahalli, Bangalore", "addr:housename": "Sri Sapthagiri Complex", "addr:housenumber": "90/3", "addr:postcode": "560034", "addr:street": "Outer Ring Road (Opp. Innovative Multiplex)", "amenity": "restaurant", "cuisine": "chinese", "indoor_seating": "yes", "level": "0", "name": "Yo China", "name:kn": "\u0caf\u0cca \u0c9a\u0cc8\u0ca8", "outdoor_seating": "no", "phone": "+91-80-40980666", "website": "http://www.yo-china.com/"}}, {"type": "node", "id": 517874453, "lat": 12.9506894, "lon": 77.5786753, "tags": {"amenity": "restaurant"}}, {"type": "node", "id": 517874458, "lat": 12.9505258, "lon": 77.5785913, "tags": {"amenity": "restaurant"}}, {"type": "node", "id": 517874459, "lat": 12.9507057, "lon": 77.5784906, "tags": {"amenity": "restaurant"}}, {"type": "node", "id": 517874464, "lat": 12.9522306, "lon": 77.5897955, "tags": {"amenity": "restaurant"}}, {"type": "node", "id": 519549595, "lat": 12.9981215, "lon": 77.5404836, "tags": {"addr:city": "Basaveshwara Nagar, Bangalore", "addr:district": "Bengaluru Urban", "addr:full": "#100/101, Lic Colony West Of Chord, Basaveshwaranagar", "addr:housenumber": "100", "addr:postcode": "560079", "addr:state": "Karnataka", "addr:street": "West of Chord Road (LIC Colony)", "amenity": "hospital", "email": "chordroadhospital100@yahoo.co.in", "healthcare:speciality": "multi speciality", "name": "Chord Road Hospital Pvt Ltd", "name:kn": "\u0c95\u0cca\u0cb0\u0ccd\u0ca1\u0ccd \u0cb0\u0cb8\u0ccd\u0ca4\u0cc6 \u0c86\u0cb8\u0ccd\u0caa\u0ca4\u0ccd\u0cb0\u0cc6", "operator:type": "private", "phone": "+91-80-23225858;+91-80-23225868;+91-80-23225878", "source": "OpenGovernmentData", "website": "http://www.chordroadhospitalent.com/", "wheelchair": "yes"}}, {"type": "node", "id": 519549869, "lat": 12.9951833, "lon": 77.5396211, "tags": {"addr:city": "Basaveshwara Nagar, Bangalore", "addr:street": "WOC Road", "amenity": "restaurant", "name": "Guru Sagar Hotel", "name:kn": "\u0c97\u0cc1\u0cb0\u0cc1 \u0cb8\u0cbe\u0c97\u0cb0"}}, {"type": "node", "id": 520091555, "lat": 13.0360931, "lon": 77.5317332, "tags": {"amenity": "pharmacy"}}, {"type": "node", "id": 521144416, "lat": 13.0486481, "lon": 77.5495673, "tags": {"amenity": "police", "name": "Jalahalli Police Station", "name:kn": "\u0c9c\u0cbe\u0cb2\u0cb9\u0cb3\u0ccd\u0cb3\u0cbf \u0c86\u0cb0\u0c95\u0ccd\u0cb7\u0c95 \u0ca0\u0cbe\u0ca3\u0cc6", "wheelchair": "no"}}, {"type": "node", "id": 521157737, "lat": 13.0489776, "lon": 77.5507923}, {"type": "node", "id": 521157739, "lat": 13.0489776, "lon": 77.5502073}, {"type": "node", "id": 521157742, "lat": 13.0494033, "lon": 77.5516365}, {"type": "node", "id": 521157744, "lat": 13.0490281, "lon": 77.5511922}, {"type": "node", "id": 521157746, "lat": 13.0500886, "lon": 77.5506812}, {"type": "node", "id": 521157748, "lat": 13.0501823, "lon": 77.5510737}, {"type": "node", "id": 529018365, "lat": 13.0281613, "lon": 77.5732067, "tags": {"amenity": "cafe", "name": "Polar Bear"}}, {"type": "node", "id": 529018378, "lat": 13.02807, "lon": 77.5729018, "tags": {"amenity": "restaurant", "name": "Hav Mor", "name:kn": "\u0cb9\u0cc7 \u0cae\u0cca\u0cb0\u0ccd"}}, {"type": "node", "id": 529277452, "lat": 13.0332772, "lon": 77.5884867}, {"type": "node", "id": 529453448, "lat": 13.0498518, "lon": 77.5561492}, {"type": "node", "id": 529453449, "lat": 13.0498678, "lon": 77.5573932}, {"type": "node", "id": 529453453, "lat": 13.0508256, "lon": 77.5573802}, {"type": "node", "id": 529453454, "lat": 13.0508096, "lon": 77.5561362}, {"type": "node", "id": 529488722, "lat": 13.013826, "lon": 77.556496}, {"type": "node", "id": 529897859, "lat": 12.9856446, "lon": 77.5424378}, {"type": "node", "id": 530353033, "lat": 12.9978931, "lon": 77.5436127, "tags": {"addr:city": "Basaveshwara Nagar, Bangalore", "addr:housenumber": "877", "addr:postcode": "560079", "addr:street": "Modi Hospital Road (West of Chord Road)", "amenity": "hospital", "email": "pristinehospitals@pristinehospitals.com", "fax": "+91-80-41354455", "healthcare": "hospital", "name": "Pristline Hospital", "name:kn": "\u0caa\u0ccd\u0cb0\u0cbf\u0cb8\u0ccd\u0c9f\u0cc0\u0ca8\u0ccd \u0c86\u0cb8\u0ccd\u0caa\u0ca4\u0ccd\u0cb0\u0cc6", "phone": "+91-80-41354444;+91-80-51270776", "website": "http://www.pristinehospitals.com/"}}, {"type": "node", "id": 534659750, "lat": 12.9971601, "lon": 77.5974721, "tags": {"addr:city": "Bangalore", "addr:housename": "Jayamahal Hotel", "addr:street": "Jayamahal Road", "amenity": "bar", "name": "Formula III Bar", "opening_hours": "11:00-23:00"}}, {"type": "node", "id": 537535762, "lat": 12.932679, "lon": 77.6135844, "tags": {"addr:street": "Hosur Road", "amenity": "restaurant", "cuisine": "indian", "name": "Hyderabad House", "name:kn": "\u0cb9\u0cc8\u0ca6\u0cb0\u0cbe\u0cac\u0cbe\u0ca6\u0ccd \u0cb9\u0ccc\u0cb8\u0ccd", "speciality": "biriyani"}}, {"type": "node", "id": 545719070, "lat": 13.0742261, "lon": 77.6337813}, {"type": "node", "id": 545719080, "lat": 13.0708314, "lon": 77.6367996}, {"type": "node", "id": 560379894, "lat": 12.8954839, "lon": 77.5978327}, {"type": "node", "id": 560379898, "lat": 12.8946243, "lon": 77.5981296}, {"type": "node", "id": 560379901, "lat": 12.8940183, "lon": 77.5990607}, {"type": "node", "id": 560379902, "lat": 12.8949854, "lon": 77.5993304}, {"type": "node", "id": 560379907, "lat": 12.8960595, "lon": 77.5971952}, {"type": "node", "id": 560379910, "lat": 12.8970191, "lon": 77.5976894}, {"type": "node", "id": 560379916, "lat": 12.895621, "lon": 77.5993219}, {"type": "node", "id": 561049118, "lat": 12.9932643, "lon": 77.5957899, "tags": {"addr:street": "Thimmaiah Road", "amenity": "restaurant", "name": "Nandhini Andhra Hotel", "name:kn": "\u0ca8\u0c82\u0ca6\u0cbf\u0ca8\u0cbf \u0c86\u0c82\u0ca6\u0ccd\u0cb0 \u0cb9\u0ccb\u0c9f\u0cc6\u0cb2\u0ccd"}}, {"type": "node", "id": 571124363, "lat": 13.0045673, "lon": 77.5710992, "tags": {"addr:street": "Sampige Road", "amenity": "cafe", "brand": "Cafe Coffee Day", "brand:wikidata": "Q5017235", "brand:wikipedia": "en:Caf\u00e9 Coffee Day", "cuisine": "coffee_shop", "name": "Cafe Coffee Day", "name:kn": "\u0c95\u0cab\u0cc6 \u0c95\u0cbe\u0cab\u0cbf \u0ca1\u0cc7", "takeaway": "yes"}}, {"type": "node", "id": 573420981, "lat": 12.9925629, "lon": 77.5949902}, {"type": "node", "id": 573420982, "lat": 12.9919307, "lon": 77.5944482}, {"type": "node", "id": 573420983, "lat": 12.9904139, "lon": 77.5954506}, {"type": "node", "id": 573420984, "lat": 12.9906983, "lon": 77.5961504}, {"type": "node", "id": 573421849, "lat": 12.9930635, "lon": 77.5959522, "tags": {"addr:street": "Thimmaiah Road", "amenity": "restaurant", "name": "Pai Vihar", "name:kn": "\u0caa\u0cc8 \u0cb5\u0cbf\u0cb9\u0cbe\u0cb0\u0ccd"}}, {"type": "node", "id": 577020540, "lat": 12.9901236, "lon": 77.5722985, "tags": {"amenity": "restaurant", "name": "Vishnu Sagar", "name:kn": "\u0cb5\u0cbf\u0cb7\u0ccd\u0ca3\u0cc1 \u0cb8\u0cbe\u0c97\u0cb0"}}, {"type": "node", "id": 577020638, "lat": 12.9898878, "lon": 77.5726957, "tags": {"amenity": "bar", "name": "Sangeeth Bar and Restaurant"}}, {"type": "node", "id": 577386395, "lat": 12.9603346, "lon": 77.6382904, "tags": {"amenity": "restaurant", "food": "nveg", "name": "MintLeaf", "name:kn": "\u0cae\u0cbf\u0c82\u0c9f\u0ccd \u0cb2\u0cc0\u0cab\u0ccd"}}, {"type": "node", "id": 577966441, "lat": 13.0192135, "lon": 77.5572955, "tags": {"addr:street": "Suberdar Chatram Road", "amenity": "restaurant", "name": "Emirates", "name:kn": "\u0c8e\u0cae\u0cbf\u0cb0\u0cc7\u0c9f\u0ccd\u0cb8\u0ccd"}}, {"type": "node", "id": 578143351, "lat": 12.9838504, "lon": 77.6060501}, {"type": "node", "id": 578143354, "lat": 12.9840783, "lon": 77.6045075}, {"type": "node", "id": 578143356, "lat": 12.9839399, "lon": 77.603692}, {"type": "node", "id": 578143360, "lat": 12.9829684, "lon": 77.6033731}, {"type": "node", "id": 578143367, "lat": 12.9822078, "lon": 77.6035776}, {"type": "node", "id": 582384953, "lat": 12.9376734, "lon": 77.5802836, "tags": {"addr:district": "Bengaluru Urban", "addr:full": "202, R.V.Road", "addr:postcode": "560001", "addr:state": "Karnataka", "addr:street": "Rashtriya Vidyalaya Road", "amenity": "hospital", "email": "info@Bengaluruhospital.co.in", "healthcare": "hospital", "name": "Bengaluru Hospital, Susruta Medical Aid AndResearch Home Limited", "name:kn": "\u0cac\u0cc6\u0c82\u0c97\u0cb3\u0cc2\u0cb0\u0cc1 \u0c86\u0cb8\u0ccd\u0caa\u0ca4\u0ccd\u0cb0\u0cc6", "operator:type": "private", "source": "OpenGovernmentData", "website": "http://dpal.kar.nic.in/Kanunu%20padakosha%20PDF%20Files/Recognised%20Hospitals.pdf"}}, {"type": "node", "id": 585148096, "lat": 12.9558807, "lon": 77.7127803, "tags": {"amenity": "restaurant", "check_date": "2025-09-03", "cuisine": "indian", "name": "Golconda Chimney", "name:kn": "\u0c97\u0cca\u0cb2\u0ccd\u0c95\u0cca\u0c82\u0ca1 \u0c9a\u0cbf\u0cae\u0cbf\u0ca8\u0cbf", "phone": "+91 80 30623434"}}, {"type": "node", "id": 590010907, "lat": 13.0521546, "lon": 77.5515881, "tags": {"amenity": "restaurant", "cuisine": "regional", "microbrewery": "no", "name": "Bharath", "name:kn": "\u0cad\u0cbe\u0cb0\u0ca4\u0ccd", "outdoor_seating": "no", "toilets:wheelchair": "no", "wheelchair": "no"}}, {"type": "node", "id": 590753378, "lat": 12.9248306, "lon": 77.6642849, "tags": {"amenity": "pharmacy", "name": "Sri Manjunath Medical & General stores"}}, {"type": "node", "id": 590753382, "lat": 12.9262764, "lon": 77.6698353, "tags": {"amenity": "restaurant", "name": "Wah Paratha"}}, {"type": "node", "id": 595305844, "lat": 13.0257078, "lon": 77.6517029, "tags": {"amenity": "pharmacy", "name": "Dava Sagar"}}, {"type": "node", "id": 595305848, "lat": 13.0230704, "lon": 77.6508206, "tags": {"addr:street": "Horamavu Agara Main Road", "amenity": "pharmacy", "brand": "Apollo Pharmacy", "brand:wikidata": "Q62562612", "healthcare": "pharmacy", "name": "Apollo Pharmacy", "name:kn": "\u0c85\u0caa\u0cca\u0cb2\u0ccb \u0cab\u0cbe\u0cb0\u0ccd\u0cae\u0cb8\u0cbf"}}, {"type": "node", "id": 595408703, "lat": 12.9309204, "lon": 77.5840319, "tags": {"amenity": "restaurant", "name": "Ganesh Darshan", "name:kn": "\u0c97\u0ca3\u0cc7\u0cb6 \u0ca6\u0cb0\u0ccd\u0cb6\u0cbf\u0ca8\u0cbf"}}, {"type": "node", "id": 595409635, "lat": 12.9330581, "lon": 77.584422, "tags": {"amenity": "restaurant", "capacity": "150", "diet:vegetarian": "only", "name": "Upahara Darshini", "name:kn": "\u0c89\u0caa\u0cb9\u0cbe\u0cb0 \u0ca6\u0cb0\u0ccd\u0cb6\u0cbf\u0ca8\u0cbf", "takeaway": "yes"}}, {"type": "node", "id": 595409636, "lat": 12.9330431, "lon": 77.5843044, "tags": {"amenity": "restaurant", "cuisine": "indian", "name": "Nagarjuna Chimney", "name:kn": "\u0ca8\u0cbe\u0c97\u0cbe\u0cb0\u0ccd\u0c9c\u0cc1\u0ca8 \u0c9a\u0cbf\u0cae\u0cbf\u0ca8\u0cbf"}}, {"type": "node", "id": 595409790, "lat": 12.9261789, "lon": 77.5848245, "tags": {"amenity": "restaurant", "cuisine": "italian", "name": "La Casa", "name:kn": "\u0cb2\u0cbe \u0c95\u0cbe\u0cb8\u0cbe"}}, {"type": "node", "id": 595411386, "lat": 12.9732444, "lon": 77.6033899, "tags": {"addr:housenumber": "13", "addr:street": "Museum Road", "amenity": "restaurant", "cuisine": "american;burger", "name": "The Only Place", "name:kn": "\u0ca6\u0cbf \u0c92\u0ca8\u0ccd\u0cb2\u0cbf \u0caa\u0ccd\u0cb2\u0cc7\u0cb8\u0ccd", "note": "Previously located where Mota Arcade is currently, on Brigade Road, until the early 2000s", "phone": "+91-80-32718989", "start_date": "1965", "toilets": "yes", "wheelchair": "yes"}}, {"type": "node", "id": 595411387, "lat": 12.9751034, "lon": 77.6028435, "tags": {"addr:housename": "The Museum", "addr:street": "Museum Road", "addr:suburb": "Shanthala Nagar", "amenity": "cafe", "name": "Temple of The Senses"}}, {"type": "node", "id": 595411389, "lat": 12.925064, "lon": 77.6328706, "tags": {"amenity": "pub", "name": "Sathya's"}}, {"type": "node", "id": 595688342, "lat": 13.0489683, "lon": 77.5440769, "tags": {"amenity": "restaurant", "name": "Durga Restaurant", "name:kn": "\u0ca6\u0cc1\u0cb0\u0ccd\u0c97\u0cbe \u0cb0\u0cc6\u0cb8\u0ccd\u0c9f\u0ccb\u0cb0\u0cc6\u0c82\u0c9f\u0ccd"}}, {"type": "node", "id": 596453631, "lat": 12.9745397, "lon": 77.6052505, "tags": {"addr:housename": "Brigade Gardens", "addr:street": "Church Street", "amenity": "restaurant", "brand": "Indian Coffee House", "brand:wikidata": "Q3595301", "cuisine": "coffee_shop;indian", "internet_access": "no", "name": "Indian Coffee House"}}, {"type": "node", "id": 598500940, "lat": 13.0041002, "lon": 77.5713906, "tags": {"addr:street": "Sampige Road, Malleshwaram", "amenity": "restaurant", "cuisine": "indian", "diet:vegetarian": "only", "name": "Udupi Sri Krishnarajathadri", "smoking": "no", "takeaway": "yes"}}, {"type": "node", "id": 598948016, "lat": 13.0330093, "lon": 77.5691944, "tags": {"amenity": "restaurant", "name": "Nandini Palace", "name:kn": "\u0ca8\u0c82\u0ca6\u0cbf\u0ca8\u0cbf \u0caa\u0ccd\u0caf\u0cbe\u0cb2\u0cc7\u0cb8\u0ccd"}}, {"type": "node", "id": 598948019, "lat": 13.0330896, "lon": 77.569359, "tags": {"amenity": "restaurant", "name": "Beijing Bites", "name:kn": "\u0cac\u0cc0\u0c9c\u0cbf\u0c82\u0c97\u0ccd \u0cac\u0cc8\u0c9f\u0ccd\u0cb8\u0ccd"}}, {"type": "node", "id": 598969461, "lat": 13.0292372, "lon": 77.5708378, "tags": {"addr:street": "New BEL Road", "amenity": "restaurant", "check_date": "2025-08-02", "cuisine": "pizza", "name": "Onesta", "name:kn": "\u0c92\u0ca8\u0cc6\u0cb8\u0ccd\u0c9f"}}, {"type": "node", "id": 598988679, "lat": 13.00654, "lon": 77.5692833, "tags": {"amenity": "restaurant", "cuisine": "chinese", "name": "Chung's", "name:kn": "\u0c9a\u0c82\u0c97\u0ccd\u0cb8\u0ccd"}}, {"type": "node", "id": 599195220, "lat": 13.0300328, "lon": 77.5355304}, {"type": "node", "id": 608958463, "lat": 13.0218399, "lon": 77.5349348, "tags": {"amenity": "restaurant", "name": "Sher-e-Punjab Dhaba", "name:kn": "\u0cb6\u0cc7\u0cb0\u0cbf\u0caa\u0c82\u0c9c\u0cbe\u0cac\u0ccd \u0ca1\u0cbe\u0cac"}}, {"type": "node", "id": 610336681, "lat": 13.0220281, "lon": 77.5340657, "tags": {"amenity": "restaurant", "name": "Adarsh Dhaba", "name:kn": "\u0c86\u0ca6\u0cb0\u0ccd\u0cb6 \u0ca1\u0cbe\u0cac"}}, {"type": "node", "id": 617760063, "lat": 13.0006252, "lon": 77.5652425, "tags": {"addr:city": "Malleswaram, Bangalore", "addr:street": "8th Main", "amenity": "pharmacy", "name": "Pushyamee"}}, {"type": "node", "id": 621235471, "lat": 13.0369119, "lon": 77.5659032, "tags": {"addr:city": "Bangalore", "addr:country": "IN", "addr:full": "Devasandra Circle", "addr:postcode": "560054", "addr:state": "Karnataka", "addr:street": "New BEL Road", "amenity": "cafe", "check_date": "2025-08-08", "name": "Shanthi Sagar", "name:kn": "\u0cb6\u0cbe\u0c82\u0ca4\u0cbf \u0cb8\u0cbe\u0c97\u0cb0"}}, {"type": "node", "id": 621241029, "lat": 13.038095, "lon": 77.569086, "tags": {"amenity": "bar", "name": "RMV Club", "name:kn": "\u0c86\u0cb0\u0ccd\u200c\u0c8e\u0cae\u0ccd\u200c\u0cb5\u0cbf \u0c95\u0ccd\u0cb2\u0cac\u0ccd"}}, {"type": "node", "id": 621241147, "lat": 13.0380165, "lon": 77.5693434, "tags": {"amenity": "restaurant", "name": "RMV Club", "name:kn": "\u0c86\u0cb0\u0ccd\u200c\u0c8e\u0cae\u0ccd\u200c\u0cb5\u0cbf \u0c95\u0ccd\u0cb2\u0cac\u0ccd"}}, {"type": "node", "id": 622720273, "lat": 13.0342347, "lon": 77.5693249, "tags": {"addr:city": "Chikkamaranahalli, Bangalore", "addr:housenumber": "10", "addr:street": "1st Main Road, New BEL Road", "amenity": "restaurant", "cuisine": "chinese", "name": "Hunan Chinese Restaurant", "name:kn": "\u0cb9\u0cc1\u0ca8\u0ca8\u0ccd \u0c9a\u0cc8\u0ca8\u0cc0\u0cb8\u0ccd \u0cb0\u0cc6\u0cb8\u0ccd\u0c9f\u0ccb\u0cb0\u0c82\u0c9f\u0ccd", "phone": "+91-80-23413337"}}, {"type": "node", "id": 625145275, "lat": 13.0162478, "lon": 77.5648911, "tags": {"amenity": "restaurant", "name": "Kabini Canteen", "name:kn": "\u0c95\u0cac\u0cbf\u0ca8\u0cbf \u0c95\u0ccd\u0caf\u0cbe\u0c82\u0c9f\u0cc0\u0ca8\u0ccd"}}, {"type": "node", "id": 625856709, "lat": 13.0011275, "lon": 77.5639285, "tags": {"addr:city": "bangalore", "addr:district": "Bengaluru Urban", "addr:full": "71, 11Th Main Road, Opposite Malleshwaram Railway Station, Malleshwaram", "addr:housenumber": "71", "addr:postcode": "560003", "addr:state": "Karnataka", "addr:street": "11th Main Road, Opp Railway Station, Malleswaram", "amenity": "hospital", "name": "Manipal Northside Hospital", "phone": "080 2222 1111", "source": "OpenGovernmentData", "wheelchair": "yes"}}, {"type": "node", "id": 625857657, "lat": 13.0009721, "lon": 77.5640265, "tags": {"amenity": "pharmacy", "name": "Manipal North Side Pharmacy", "wheelchair": "yes"}}, {"type": "node", "id": 627936451, "lat": 13.0372579, "lon": 77.566121, "tags": {"amenity": "restaurant", "name": "Chicken County", "name:kn": "\u0c9a\u0cbf\u0c95\u0ca8\u0ccd \u0c95\u0ccc\u0c82\u0c9f\u0cbf"}}, {"type": "node", "id": 638167114, "lat": 12.9752596, "lon": 77.6048953, "tags": {"addr:floor": "13", "addr:housenumber": "84", "addr:street": "Mahatma Gandhi Road", "amenity": "bar", "check_date": "2024-09-03", "level": "13", "name": "Thirteenth Floor", "outdoor_seating": "yes"}}, {"type": "node", "id": 638168606, "lat": 12.971852, "lon": 77.5964092, "tags": {"addr:city": "Bangalore", "addr:country": "IN", "addr:hamlet": "UB City", "addr:housename": "Comet", "addr:postcode": "560001", "addr:street": "Vittal Mallaya Road", "amenity": "restaurant", "check_date": "2024-08-19", "contact:instagram": "experienceshiro", "cuisine": "asian", "level": "3", "name": "Shiro", "name:kn": "\u0cb6\u0cbf\u0cb0\u0cca"}}, {"type": "node", "id": 644420166, "lat": 12.9600242, "lon": 77.6015444, "tags": {"amenity": "restaurant", "name": "Sandhya Sagar", "name:kn": "\u0cb8\u0c82\u0ca7\u0ccd\u0caf\u0cbe \u0cb8\u0cbe\u0c97\u0cb0\u0ccd"}}, {"type": "node", "id": 646739373, "lat": 12.9601639, "lon": 77.5945806, "tags": {"addr:street": "Shanti Road", "amenity": "restaurant", "name": "Utsav", "name:kn": "\u0c89\u0ca4\u0ccd\u0cb8\u0cb5\u0ccd"}}, {"type": "node", "id": 650621057, "lat": 12.994359, "lon": 77.5711764, "tags": {"addr:street": "Sampige Road", "amenity": "restaurant", "name": "Rasa", "name:kn": "\u0cb0\u0cb8"}}, {"type": "node", "id": 660061429, "lat": 13.0275961, "lon": 77.5766293, "tags": {"amenity": "restaurant", "name": "Freska", "name:kn": "\u0cab\u0ccd\u0cb0\u0cc6\u0cb8\u0ccd\u0c95"}}, {"type": "node", "id": 660345442, "lat": 13.0068412, "lon": 77.5789439, "tags": {"amenity": "restaurant"}}, {"type": "node", "id": 660345491, "lat": 13.0279832, "lon": 77.5715545, "tags": {"addr:street": "New BEL Road", "amenity": "restaurant", "brand": "Pizza Hut", "brand:wikidata": "Q191615", "cuisine": "pizza", "name": "Pizza Hut", "name:kn": "\u0caa\u0cbf\u0c9f\u0ccd\u0cb8 \u0cb9\u0c9f\u0ccd"}}, {"type": "node", "id": 660345492, "lat": 13.027204, "lon": 77.57712, "tags": {"amenity": "pub", "cuisine": "indian", "name": "The Founders Brewery", "wheelchair": "limited"}}, {"type": "node", "id": 660666066, "lat": 12.991491, "lon": 77.5941489, "tags": {"addr:street": "Millers Road", "amenity": "restaurant", "cuisine": "american", "name": "Miller's 46", "name:kn": "\u0cae\u0cbf\u0cb2\u0ccd\u0cb2\u0cb0\u0ccd\u0cb8\u0ccd \u0cea\u0cec"}}, {"type": "node", "id": 661059074, "lat": 13.0069868, "lon": 77.5788699, "tags": {"addr:street": "Jeevaraj Alva Road", "amenity": "restaurant", "diet:vegetarian": "only", "name": "Mint Masala", "name:kn": "\u0cae\u0cbf\u0c82\u0c9f\u0ccd \u0cae\u0cb8\u0cbe\u0cb2"}}, {"type": "node", "id": 661983020, "lat": 12.9720317, "lon": 77.6009309, "tags": {"addr:street": "Saint Mark's Road", "amenity": "cafe", "name": "Juice Junction", "shop": "beverages"}}, {"type": "node", "id": 661983038, "lat": 12.9751155, "lon": 77.6014152, "tags": {"addr:street": "Saint Mark's Road", "amenity": "cafe", "name": "Bowring Stall"}}, {"type": "node", "id": 661983050, "lat": 12.9871688, "lon": 77.5946714, "tags": {"addr:city": "Bengaluru", "addr:country": "IN", "addr:housename": "Shah Sultan Complex", "addr:housenumber": "17/1", "addr:street": "Cunningham Road", "amenity": "restaurant", "name": "Shezan Restaurant", "name:kn": "\u0cb6\u0cc6\u0cb8\u0cbe\u0ca8\u0ccd \u0cb0\u0cc6\u0cb8\u0ccd\u0c9f\u0ccb\u0cb0\u0c82\u0c9f\u0ccd"}}, {"type": "node", "id": 661983062, "lat": 12.9887039, "lon": 77.5939333, "tags": {"addr:street": "Cunningham Road", "amenity": "restaurant", "cuisine": "indian", "name": "Ramana's", "name:kn": "\u0cb0\u0cae\u0ca3"}}, {"type": "node", "id": 663317752, "lat": 12.9695368, "lon": 77.5877623, "tags": {"amenity": "police", "name": "Police Headquarters"}}, {"type": "node", "id": 663317757, "lat": 12.9702657, "lon": 77.5871533}, {"type": "node", "id": 663317758, "lat": 12.9704007, "lon": 77.5874248, "tags": {"addr:city": "Bengaluru", "addr:postcode": "560001", "addr:street": "Nrupathunga Road", "amenity": "restaurant", "cuisine": "regional", "name": "Nisarga", "name:kn": "\u0ca8\u0cbf\u0cb8\u0cb0\u0ccd\u0c97"}}, {"type": "node", "id": 663317784, "lat": 12.9700053, "lon": 77.5885566}, {"type": "node", "id": 663561803, "lat": 12.9765196, "lon": 77.5983319}, {"type": "node", "id": 663561812, "lat": 12.9762382, "lon": 77.5985608}, {"type": "node", "id": 663568572, "lat": 12.9717817, "lon": 77.5942306, "tags": {"addr:city": "Bangalore", "addr:street": "Lavelle Road", "amenity": "cafe", "branch": "Square", "brand": "Cafe Coffee Day", "brand:wikidata": "Q5017235", "check_date": "2024-08-19", "cuisine": "coffee_shop", "indoor_seating": "yes", "internet_access": "wlan", "name": "Cafe Coffee Day", "name:kn": "\u0c95\u0cab\u0cc6 \u0c95\u0cbe\u0cab\u0cbf \u0ca1\u0cc7", "outdoor_seating": "yes", "takeaway": "yes", "wheelchair": "limited"}}, {"type": "node", "id": 663596614, "lat": 12.9842446, "lon": 77.599777}, {"type": "node", "id": 663596615, "lat": 12.9831904, "lon": 77.6002669}, {"type": "node", "id": 663604723, "lat": 12.9503234, "lon": 77.6162619, "tags": {"amenity": "hospital", "healthcare": "hospital", "name": "Government Primary Health Centre", "name:kn": "\u0cb8\u0cb0\u0ccd\u0c95\u0cbe\u0cb0\u0cbf \u0caa\u0ccd\u0cb0\u0cbe\u0ca5\u0cae\u0cbf\u0c95 \u0c86\u0cb0\u0ccb\u0c97\u0ccd\u0caf \u0c95\u0cc7\u0c82\u0ca6\u0ccd\u0cb0", "ups_hospital": "hospital"}}, {"type": "node", "id": 663941464, "lat": 12.9803653, "lon": 77.5950694, "tags": {"amenity": "restaurant", "diet:vegetarian": "only", "name": "Canteen", "name:kn": "\u0c95\u0ccd\u0caf\u0cbe\u0c82\u0c9f\u0cc0\u0ca8\u0ccd"}}, {"type": "node", "id": 664332016, "lat": 13.0059079, "lon": 77.578507, "tags": {"amenity": "pharmacy", "healthcare": "pharmacy", "name": "Keshava Medical & General Stores"}}, {"type": "node", "id": 664332018, "lat": 13.0076197, "lon": 77.5793977, "tags": {"amenity": "cafe", "brand": "Cafe Coffee Day", "brand:wikidata": "Q5017235", "cuisine": "coffee_shop", "name": "Cafe Coffee Day", "name:kn": "\u0c95\u0cab\u0cc6 \u0c95\u0cbe\u0cab\u0cbf \u0ca1\u0cc7", "takeaway": "yes"}}, {"type": "node", "id": 665045222, "lat": 12.9758502, "lon": 77.5891031, "tags": {"amenity": "restaurant", "name": "Parkview Hotel", "name:kn": "\u0caa\u0cbe\u0cb0\u0ccd\u0c95\u0ccd\u200c\u0cb5\u0cc0\u0cb5\u0ccd \u0cb9\u0ccb\u0c9f\u0cc6\u0cb2\u0ccd"}}, {"type": "node", "id": 665072281, "lat": 12.9819951, "lon": 77.5848194}, {"type": "node", "id": 665072900, "lat": 12.9768009, "lon": 77.6016551}, {"type": "node", "id": 665727326, "lat": 12.9100629, "lon": 77.5924585, "tags": {"addr:district": "Bengaluru Urban", "addr:full": "220, 2nd phase, JP Nagar,Next to Nilgiris", "addr:postcode": "560078", "addr:state": "Karnataka", "amenity": "hospital", "check_date": "2025-06-21", "healthcare:speciality": "General Gynecology; Obstetrics; Prenatal Care; nulife clinic; Laboratory Testing and In-Office Surgery; Medical Spa for Women; Ophthalmology", "name": "Divakars speciality Hospital", "operator:type": "private", "source": "OpenGovernmentData", "website": "http://www.healthforher.in/"}}, {"type": "node", "id": 665871268, "lat": 12.9671651, "lon": 77.580199, "tags": {"amenity": "restaurant", "cuisine": "indian", "diet:vegetarian": "yes", "name": "Chatpat", "name:kn": "\u0c9a\u0c9f\u0ccd\u0caa\u0c9f\u0ccd"}}, {"type": "node", "id": 665871269, "lat": 12.9697027, "lon": 77.5796625, "tags": {"amenity": "cafe", "name": "Cane Crush"}}, {"type": "node", "id": 665871272, "lat": 12.9742892, "lon": 77.5778952, "tags": {"addr:street": "Kempe Gowda Road", "amenity": "cafe", "name": "Sri Vinayaka Juice & Chats Center"}}, {"type": "node", "id": 665871273, "lat": 12.9703805, "lon": 77.5800395, "tags": {"amenity": "restaurant", "cuisine": "indian", "name": "Hotel Madhuvan", "name:kn": "\u0cae\u0ca7\u0cc1\u0cb5\u0ca8"}}, {"type": "node", "id": 665871279, "lat": 12.9798386, "lon": 77.6027906, "tags": {"amenity": "restaurant", "cuisine": "indian", "name": "Hotel Empire", "name:kn": "\u0cb9\u0ccb\u0c9f\u0cc6\u0cb2\u0ccd \u0c8e\u0c82\u0caa\u0cc8\u0cb0\u0ccd"}}, {"type": "node", "id": 665871282, "lat": 12.9847344, "lon": 77.5971261, "tags": {"addr:street": "Cunningham Road", "amenity": "restaurant", "cuisine": "regional", "diet:vegetarian": "yes", "name": "Sanman Veg"}}, {"type": "node", "id": 665871289, "lat": 12.9857313, "lon": 77.595832, "tags": {"addr:street": "Cunningham Road", "amenity": "cafe", "brand": "Sweet Chariot", "delivery": "yes", "name": "Sweet Chariot", "shop": "pastry", "takeaway": "yes"}}, {"type": "node", "id": 665871294, "lat": 12.9965785, "lon": 77.6045552, "tags": {"addr:street": "Benson Cross Road", "amenity": "pharmacy", "healthcare": "pharmacy", "name": "S. S. Pharma"}}, {"type": "node", "id": 668990999, "lat": 12.9356995, "lon": 77.6145787, "tags": {"addr:street": "80 Feet Road", "amenity": "cafe", "brand": "Cafe Coffee Day", "brand:wikidata": "Q5017235", "cuisine": "coffee_shop", "name": "Cafe Coffee Day", "name:kn": "\u0c95\u0cab\u0cc6 \u0c95\u0cbe\u0cab\u0cbf \u0ca1\u0cc7", "takeaway": "yes"}}, {"type": "node", "id": 671185204, "lat": 12.9568547, "lon": 77.7148261, "tags": {"amenity": "pharmacy", "name": "A K Medicals"}}, {"type": "node", "id": 671185205, "lat": 12.9606501, "lon": 77.7138068, "tags": {"amenity": "pharmacy", "name": "Trust Medicals"}}, {"type": "node", "id": 671185206, "lat": 12.960765, "lon": 77.7137961, "tags": {"amenity": "hospital", "name": "Hema Poly Clinic"}}, {"type": "node", "id": 673377213, "lat": 12.9853914, "lon": 77.5795059, "tags": {"amenity": "restaurant", "cuisine": "indian", "name": "Sana Di Ge", "name:kn": "\u0cb8\u0ca8 \u0ca6\u0cbf \u0c97\u0cc6"}}, {"type": "node", "id": 673377221, "lat": 13.0075715, "lon": 77.5793658, "tags": {"addr:street": "13th Cross Sadashivanagar", "amenity": "cafe", "name": "Pure & Natural"}}, {"type": "node", "id": 673860152, "lat": 13.0068783, "lon": 77.5790907, "tags": {"amenity": "restaurant", "cuisine": "indian", "diet:vegetarian": "yes", "name": "New Shanthi Sagar", "name:kn": "\u0ca8\u0ccd\u0caf\u0cc2 \u0cb6\u0cbe\u0c82\u0ca4\u0cbf \u0cb8\u0cbe\u0c97\u0cb0\u0ccd"}}, {"type": "node", "id": 673860153, "lat": 13.0129089, "lon": 77.5742856, "tags": {"amenity": "pharmacy", "name": "Saisudha Medical"}}, {"type": "node", "id": 673860156, "lat": 13.0144093, "lon": 77.5736842, "tags": {"amenity": "restaurant", "name": "Nikki's Pub & Restaurant", "name:kn": "\u0ca8\u0cbf\u0c95\u0ccd\u0c95\u0cbf\u0cb8\u0ccd \u0caa\u0cac\u0ccd & \u0cb0\u0cc6\u0cb8\u0ccd\u0c9f\u0ccb\u0cb0\u0cc6\u0c82\u0c9f\u0ccd"}}, {"type": "node", "id": 677286826, "lat": 12.9736525, "lon": 77.5801953, "tags": {"addr:street": "Kempe Gowda Road", "amenity": "cafe", "name": "Coffee Day", "name:kn": "\u0c95\u0cab\u0cc6 \u0c95\u0cbe\u0cab\u0cbf \u0ca1\u0cc7"}}, {"type": "node", "id": 677286843, "lat": 12.9711937, "lon": 77.6007788, "tags": {"addr:city": "Bangalore", "addr:street": "Saint Mark's Road", "amenity": "restaurant", "cuisine": "indian", "diet:vegetarian": "only", "name": "Amruth Vegetarian Restaurant", "name:kn": "\u0c85\u0cae\u0cc3\u0ca4\u0ccd \u0cb5\u0cc6\u0c9c\u0cbf\u0c9f\u0cc7\u0cb0\u0cbf\u0caf\u0ca8\u0ccd \u0cb0\u0cc6\u0cb8\u0ccd\u0c9f\u0ccb\u0cb0\u0cc6\u0c82\u0c9f\u0ccd"}}, {"type": "node", "id": 677288910, "lat": 12.982738, "lon": 77.6030551, "tags": {"amenity": "restaurant", "cuisine": "indian", "name": "Hotel Vinitha", "name:kn": "\u0cb9\u0ccb\u0c9f\u0cc6\u0cb2\u0ccd \u0cb5\u0cbf\u0ca8\u0cbf\u0ca4"}}, {"type": "node", "id": 679886725, "lat": 12.9649071, "lon": 77.5681542}, {"type": "node", "id": 679886767, "lat": 12.9635035, "lon": 77.5674932}, {"type": "node", "id": 679886785, "lat": 12.9647552, "lon": 77.5672137}, {"type": "node", "id": 679886814, "lat": 12.9639958, "lon": 77.5681757}, {"type": "node", "id": 679886851, "lat": 12.9633987, "lon": 77.5673373}, {"type": "node", "id": 679886893, "lat": 12.9637968, "lon": 77.5680521}, {"type": "node", "id": 680004360, "lat": 12.9802166, "lon": 77.56574}, {"type": "node", "id": 680004373, "lat": 12.9794404, "lon": 77.564481}, {"type": "node", "id": 680004435, "lat": 12.9793627, "lon": 77.5656525}, {"type": "node", "id": 680004477, "lat": 12.9802981, "lon": 77.5645109}, {"type": "node", "id": 680020366, "lat": 12.9772698, "lon": 77.570304, "tags": {"addr:street": "Gubbi Thotadappa Road", "amenity": "restaurant", "name": "Hare Krishna Pure Veg Restaurant"}}, {"type": "node", "id": 680020369, "lat": 12.9772479, "lon": 77.5704213, "tags": {"amenity": "restaurant", "name": "Balaji Restaurant"}}, {"type": "node", "id": 683352671, "lat": 12.9610239, "lon": 77.5830853}, {"type": "node", "id": 683352694, "lat": 12.9734503, "lon": 77.5751186, "tags": {"addr:street": "Balepet Road", "amenity": "cafe", "name": "Fresh Cane"}}, {"type": "node", "id": 691164726, "lat": 12.928367, "lon": 77.5905691, "tags": {"addr:street": "Tilak Nagar Main Road", "amenity": "police", "name": "Tilaknagar Police Station", "name:kn": "\u0ca4\u0cbf\u0cb2\u0c95\u0ccd \u0ca8\u0c97\u0cb0 \u0caa\u0ccb\u0cb2\u0cbf\u0cb8\u0ccd \u0c9f\u0cbe\u0ca3\u0cc6"}}, {"type": "node", "id": 691164727, "lat": 12.9310045, "lon": 77.5830947, "tags": {"amenity": "restaurant", "brand": "Pizza Hut", "brand:wikidata": "Q191615", "cuisine": "pizza", "name": "Pizza Hut", "name:kn": "\u0caa\u0cbf\u0c9f\u0ccd\u0cb8 \u0cb9\u0c9f\u0ccd"}}, {"type": "node", "id": 691514950, "lat": 13.035415, "lon": 77.5891111}, {"type": "node", "id": 691514954, "lat": 13.0349534, "lon": 77.5906325}, {"type": "node", "id": 691514958, "lat": 13.0337216, "lon": 77.5897063}, {"type": "node", "id": 691514964, "lat": 13.0340516, "lon": 77.5885545}, {"type": "node", "id": 691514970, "lat": 13.0333788, "lon": 77.5902697}, {"type": "node", "id": 691514988, "lat": 13.0332807, "lon": 77.5908086}, {"type": "node", "id": 691514991, "lat": 13.0337469, "lon": 77.5911247}, {"type": "node", "id": 691514995, "lat": 13.0344318, "lon": 77.591812}, {"type": "node", "id": 691514998, "lat": 13.0347977, "lon": 77.5915867}, {"type": "node", "id": 691515001, "lat": 13.0360009, "lon": 77.591314}, {"type": "node", "id": 691515004, "lat": 13.0360872, "lon": 77.5909979}, {"type": "node", "id": 691515008, "lat": 13.035916, "lon": 77.5909121}, {"type": "node", "id": 691930445, "lat": 12.9234317, "lon": 77.5923374, "tags": {"amenity": "hospital", "check_date": "2024-08-18", "name": "BMTC Hospital", "name:kn": "\u0cac\u0cbf\u0c8e\u0c82\u0c9f\u0cbf\u0cb8\u0cbf \u0c86\u0cb8\u0ccd\u0caa\u0ca4\u0ccd\u0cb0\u0cc6", "wheelchair": "yes"}}, {"type": "node", "id": 697470017, "lat": 12.9717043, "lon": 77.6645116}, {"type": "node", "id": 701733264, "lat": 13.0368708, "lon": 77.5233568, "tags": {"amenity": "bar"}}, {"type": "node", "id": 707263564, "lat": 13.0716446, "lon": 77.6575004}, {"type": "node", "id": 707263566, "lat": 13.0716432, "lon": 77.6574382}, {"type": "node", "id": 707263569, "lat": 13.0717141, "lon": 77.6574366}, {"type": "node", "id": 707263570, "lat": 13.0717154, "lon": 77.6574988}, {"type": "node", "id": 710095029, "lat": 12.9643756, "lon": 77.6371873, "tags": {"addr:street": "4th Main Road", "amenity": "bar", "name": "Domlur Club"}}, {"type": "node", "id": 731781098, "lat": 12.8761792, "lon": 77.6169752, "tags": {"amenity": "pharmacy", "name": "Greeshma"}}, {"type": "node", "id": 736014185, "lat": 12.9622135, "lon": 77.6414116, "tags": {"addr:street": "100 Feet Road( S K Karim Khan Road)", "amenity": "restaurant", "name": "Barbeque Nation", "name:kn": "\u0cac\u0cb0\u0ccd\u0cac\u0c95\u0ccd\u0caf\u0cc2 \u0ca8\u0cc7\u0cb6\u0ca8\u0ccd", "wheelchair": "limited"}}, {"type": "node", "id": 736207276, "lat": 12.9828531, "lon": 77.6385861}, {"type": "node", "id": 736207437, "lat": 12.9716165, "lon": 77.6360033}, {"type": "node", "id": 736207478, "lat": 12.9705802, "lon": 77.6374468}, {"type": "node", "id": 736207548, "lat": 12.9832174, "lon": 77.6385556}, {"type": "node", "id": 736207572, "lat": 12.9722022, "lon": 77.6373247}, {"type": "node", "id": 736207619, "lat": 12.9704936, "lon": 77.6360041}, {"type": "node", "id": 762079646, "lat": 13.0198876, "lon": 77.6399933}, {"type": "node", "id": 762086048, "lat": 12.9893411, "lon": 77.5929583, "tags": {"amenity": "restaurant", "cuisine": "indian", "name": "A Masala House", "name:kn": "\u0c85 \u0cae\u0cb8\u0cb2\u0cbe \u0cb9\u0ccc\u0cb8\u0ccd"}}, {"type": "node", "id": 769216417, "lat": 12.9364329, "lon": 77.583477, "tags": {"amenity": "hospital", "healthcare": "hospital", "name": "Ramakrishna Nursing Home and Hospital"}}, {"type": "node", "id": 844423869, "lat": 12.9590966, "lon": 77.6544331, "tags": {"air_conditioning": "yes", "amenity": "restaurant", "brand": "Pizza Hut", "brand:wikidata": "Q191615", "check_date": "2025-12-29", "cuisine": "pizza", "diet:halal": "no", "diet:vegan": "no", "diet:vegetarian": "yes", "indoor_seating": "yes", "name": "Pizza Hut", "name:kn": "\u0caa\u0cbf\u0c9f\u0ccd\u0cb8 \u0cb9\u0c9f\u0ccd", "opening_hours": "Mo-Su 11:00-23:00", "outdoor_seating": "no", "payment:cash": "yes", "payment:credit_cards": "yes", "payment:debit_cards": "yes", "smoking": "no", "wheelchair": "no"}}, {"type": "node", "id": 844434365, "lat": 12.960424, "lon": 77.646233, "tags": {"addr:street": "Kodihalli Main Road", "amenity": "pharmacy"}}, {"type": "node", "id": 844434369, "lat": 12.9622433, "lon": 77.6470269, "tags": {"addr:street": "Kodihalli Main Road", "amenity": "pharmacy"}}, {"type": "node", "id": 844462412, "lat": 12.983019, "lon": 77.6384106, "tags": {"amenity": "police", "name": "Indira Nagar Police Station", "name:kn": "\u0c87\u0c82\u0ca6\u0cbf\u0cb0\u0cbe\u0ca8\u0c97\u0cb0 \u0c86\u0cb0\u0c95\u0ccd\u0cb7\u0c95 \u0ca0\u0cbe\u0ca3\u0cc6"}}, {"type": "node", "id": 850751675, "lat": 13.0273116, "lon": 77.5935719, "tags": {"amenity": "restaurant", "name": "Kabab Manor", "name:kn": "\u0c95\u0cac\u0cbe\u0cac\u0ccd \u0cae\u0cc6\u0ca8\u0cb0\u0ccd"}}, {"type": "node", "id": 860057144, "lat": 13.0050896, "lon": 77.623376, "tags": {"amenity": "pharmacy", "healthcare": "pharmacy", "name": "Amruth Medicals", "name:kn": "\u0c85\u0cae\u0cc3\u0ca4 \u0cae\u0cc6\u0ca1\u0cbf\u0c95\u0cb2\u0ccd\u0cb8\u0ccd"}}, {"type": "node", "id": 860057145, "lat": 13.0052518, "lon": 77.6233121, "tags": {"amenity": "pharmacy", "brand": "Apollo Pharmacy", "brand:wikidata": "Q62562612", "healthcare": "pharmacy", "name": "Apollo Pharmacy", "name:kn": "\u0c85\u0caa\u0cca\u0cb2\u0ccb \u0cab\u0cbe\u0cb0\u0ccd\u0cae\u0cb8\u0cbf"}}, {"type": "node", "id": 861183324, "lat": 12.9753625, "lon": 77.6051643, "tags": {"addr:floor": "13", "addr:housenumber": "84", "addr:street": "Mahatma Gandhi Road", "amenity": "restaurant", "cuisine": "indian", "name": "Ebony", "name:kn": "\u0c8e\u0cac\u0cca\u0ca8\u0cbf", "opening_hours": "Mo-Su 12:30-15:00,19:30-22:30; Fr-Sa 12:30-15:00,19:30-23:30", "phone": "+91 8025136611; +91 8041783344"}}, {"type": "node", "id": 905784975, "lat": 13.0228247, "lon": 77.6477855, "tags": {"amenity": "restaurant", "name": "Little Imperial", "name:kn": "\u0cb2\u0cbf\u0c9f\u0cb2\u0ccd \u0c87\u0c82\u0caa\u0cbf\u0cb0\u0cbf\u0caf\u0cb2\u0ccd"}}, {"type": "node", "id": 929965952, "lat": 12.924585, "lon": 77.6743627, "tags": {"addr:street": "Outer Ring Road", "air_conditioning": "yes", "amenity": "cafe", "brand": "Cafe Coffee Day", "brand:wikidata": "Q5017235", "brand:wikipedia": "en:Caf\u00e9 Coffee Day", "check_date": "2025-08-18", "check_date:diet:vegetarian": "2025-08-18", "cuisine": "coffee_shop", "diet:vegetarian": "yes", "indoor_seating": "yes", "name": "Cafe Coffee Day", "name:kn": "\u0c95\u0cab\u0cc6 \u0c95\u0cbe\u0cab\u0cbf \u0ca1\u0cc7", "outdoor_seating": "no", "takeaway": "yes"}}, {"type": "node", "id": 940515833, "lat": 12.959041, "lon": 77.6564566, "tags": {"addr:street": "HAL Airport Road", "amenity": "restaurant", "cuisine": "Andhra", "name": "Hyderabad Biryani House", "name:kn": "\u0cb9\u0cc8\u0ca6\u0cb0\u0cbe\u0cac\u0cbe\u0ca6\u0ccd \u0cac\u0cbf\u0cb0\u0caf\u0cbe\u0ca8\u0cbf \u0cb9\u0ccc\u0cb8\u0ccd"}}, {"type": "node", "id": 940525605, "lat": 12.9677712, "lon": 77.6556937, "tags": {"amenity": "police", "name": "Jeevan Bhima Nagar Police Station", "name:kn": "\u0c9c\u0cc0\u0cb5\u0ca8 \u0cad\u0cc0\u0cae \u0ca8\u0c97\u0cb0"}}, {"type": "node", "id": 940536431, "lat": 12.967858, "lon": 77.6542204, "tags": {"amenity": "cafe", "brand": "Cafe Coffee Day", "brand:wikidata": "Q5017235", "brand:wikipedia": "en:Caf\u00e9 Coffee Day", "cuisine": "coffee_shop", "name": "Cafe Coffee Day", "name:kn": "\u0c95\u0cab\u0cc6 \u0c95\u0cbe\u0cab\u0cbf \u0ca1\u0cc7", "takeaway": "yes"}}, {"type": "node", "id": 945711483, "lat": 12.9699613, "lon": 77.6473796, "tags": {"addr:street": "80 Feet Road(Sir C.V. Raman Hospital Road)", "amenity": "restaurant", "brand": "Empire", "cuisine": "indian", "delivery": "yes", "diet:vegetarian": "yes", "name": "Empire", "name:kn": "\u0c8e\u0c82\u0caa\u0cc8\u0cb0\u0ccd", "takeaway": "yes"}}, {"type": "node", "id": 949313544, "lat": 12.9141731, "lon": 77.6134947, "tags": {"amenity": "pharmacy", "name": "Sri Murti medicals"}}, {"type": "node", "id": 949313549, "lat": 12.9149626, "lon": 77.6149914, "tags": {"addr:city": "BTM Layout, Bangalore", "addr:street": "29th Main", "amenity": "restaurant", "name": "Sri Ganesh Food Point", "name:kn": "\u0cb6\u0ccd\u0cb0\u0cc0 \u0c97\u0ca3\u0cc7\u0cb6\u0ccd \u0cab\u0cc1\u0ca1\u0ccd \u0caa\u0cbe\u0caf\u0cbf\u0c82\u0c9f\u0ccd"}}, {"type": "node", "id": 949313551, "lat": 12.9136384, "lon": 77.6074718, "tags": {"amenity": "pharmacy", "brand": "MedPlus", "brand:wikidata": "Q65684234", "healthcare": "pharmacy", "name": "MedPlus", "opening_hours": "PH,Mo-Su 08:00-23:00"}}, {"type": "node", "id": 951203512, "lat": 12.913127, "lon": 77.6101684, "tags": {"amenity": "restaurant", "name": "Beijing Bites", "name:kn": "\u0cac\u0cc0\u0c9c\u0cbf\u0c82\u0c97\u0ccd \u0cac\u0cc8\u0c9f\u0ccd\u0cb8\u0ccd", "opening_hours": "Mo-Su 09:00-21:30"}}, {"type": "node", "id": 951203524, "lat": 12.9136689, "lon": 77.6099505, "tags": {"amenity": "restaurant", "check_date": "2023-10-15", "name": "Punjabi Swag", "opening_hours": "Mo-Su 10:00-21:00", "wheelchair": "limited"}}, {"type": "node", "id": 951203526, "lat": 12.9086369, "lon": 77.6105652, "tags": {"amenity": "police", "name": "Mico Layout Police Station", "name:kn": "\u0cae\u0cbf\u0c95\u0ccb \u0cac\u0ca1\u0cbe\u0cb5\u0ca3\u0cc6 \u0c86\u0cb0\u0c95\u0ccd\u0cb7\u0c95", "wheelchair": "yes"}}, {"type": "node", "id": 951203531, "lat": 12.9133476, "lon": 77.6101635, "tags": {"amenity": "pharmacy", "brand": "Apollo Pharmacy", "brand:wikidata": "Q62562612", "healthcare": "pharmacy", "name": "Apollo Pharmacy", "name:kn": "\u0c85\u0caa\u0ccb\u0cb2\u0ccb \u0cab\u0cbe\u0cb0\u0ccd\u0cae\u0cb8\u0cbf", "opening_hours": "PH,Mo-Su 08:00-23:00", "wheelchair": "no"}}, {"type": "node", "id": 951470704, "lat": 12.9387161, "lon": 77.5534116, "tags": {"addr:street": "80 Feet Road", "amenity": "restaurant", "cuisine": "regional", "name": "Udupi Upahar", "name:kn": "\u0c89\u0ca1\u0cc1\u0caa\u0cbf \u0c89\u0caa\u0cb9\u0cbe\u0cb0"}}, {"type": "node", "id": 953626886, "lat": 12.935917, "lon": 77.5439681, "tags": {"amenity": "police", "name": "Girinagar Police Station", "name:kn": "\u0c97\u0cbf\u0cb0\u0cbf\u0ca8\u0c97\u0cb0 \u0c86\u0cb0\u0c95\u0ccd\u0cb7\u0c95 \u0ca0\u0cbe\u0ca3\u0cc6"}}, {"type": "node", "id": 953639347, "lat": 12.9408942, "lon": 77.5456204, "tags": {"amenity": "pharmacy", "name": "Radhakrishna Pharmacy"}}, {"type": "node", "id": 953661272, "lat": 12.9403595, "lon": 77.5458556, "tags": {"amenity": "pharmacy", "name": "Sri Balaji Medicals and General Stores"}}, {"type": "node", "id": 953663359, "lat": 12.9261046, "lon": 77.5502503, "tags": {"amenity": "restaurant", "name": "Anna Kuteera", "name:kn": "\u0c85\u0ca3\u0ccd\u0ca3 \u0c95\u0cc1\u0c9f\u0cc0\u0cb0", "toilets:wheelchair": "no", "wheelchair": "no"}}, {"type": "node", "id": 953675751, "lat": 12.9237141, "lon": 77.5534616, "tags": {"addr:street": "Outer Ring Road", "amenity": "restaurant", "name": "Shanthi Sagar", "name:kn": "\u0cb6\u0cbe\u0c82\u0ca4\u0cbf \u0cb8\u0cbe\u0c97\u0cb0"}}, {"type": "node", "id": 954620605, "lat": 12.9437007, "lon": 77.5649097, "tags": {"amenity": "restaurant", "name": "Ganesh Bhavan", "name:kn": "\u0c97\u0ca3\u0cc7\u0cb6 \u0cad\u0cb5\u0ca8", "wheelchair": "no"}}, {"type": "node", "id": 954623054, "lat": 12.939058, "lon": 77.5510802, "tags": {"addr:city": "bangalore", "addr:housenumber": "8/45", "addr:postcode": "560050", "addr:street": "80 Feet Road, SBM Colony, Near-Bank Colony Bus Stop, Banashankari 1st Stage", "amenity": "hospital", "name": "Sri Vinayaka Poly Clinic", "phone": "080 2672 8455", "source": "justdial"}}, {"type": "node", "id": 959249211, "lat": 13.1028474, "lon": 77.5770272, "tags": {"amenity": "restaurant", "cuisine": "chinese", "internet_access": "no", "name": "Schezwan", "name:kn": "\u0cb8\u0cc6\u0cb6\u0cb5\u0cbe\u0ca8\u0ccd", "smoking": "no", "stars": "2", "wheelchair": "no"}}, {"type": "node", "id": 959268235, "lat": 12.9332899, "lon": 77.5427058, "tags": {"amenity": "pharmacy", "brand": "Apollo Pharmacy", "brand:wikidata": "Q62562612", "healthcare": "pharmacy", "name": "Apollo Pharmacy", "name:kn": "\u0c85\u0caa\u0ccb\u0cb2\u0ccb \u0cab\u0cbe\u0cb0\u0ccd\u0cae\u0cb8\u0cbf", "opening_hours": "Mo-Su,PH 08:30-21:30"}}, {"type": "node", "id": 959499253, "lat": 13.1038325, "lon": 77.5824316}, {"type": "node", "id": 959499269, "lat": 13.1034444, "lon": 77.5832071}, {"type": "node", "id": 959499350, "lat": 13.1040823, "lon": 77.583561}, {"type": "node", "id": 959499421, "lat": 13.1047783, "lon": 77.5829508}, {"type": "node", "id": 959499456, "lat": 13.0989794, "lon": 77.5860213}, {"type": "node", "id": 960168726, "lat": 13.097155, "lon": 77.589103}, {"type": "node", "id": 960168733, "lat": 13.0971259, "lon": 77.5896673}, {"type": "node", "id": 960168736, "lat": 13.0973536, "lon": 77.589464}, {"type": "node", "id": 960168756, "lat": 13.0969331, "lon": 77.5893311}, {"type": "node", "id": 966862788, "lat": 13.0335598, "lon": 77.5758979, "tags": {"amenity": "police", "name": "Sanjayanagar Police station", "name:kn": "\u0cb8\u0c82\u0c9c\u0caf\u0ca8\u0c97\u0cb0 \u0c86\u0cb0\u0c95\u0ccd\u0cb7\u0c95 \u0ca0\u0cbe\u0ca3\u0cc6"}}, {"type": "node", "id": 966863252, "lat": 13.0322788, "lon": 77.576876, "tags": {"amenity": "hospital", "emergency": "yes", "healthcare": "hospital", "name": "RMV Hospital"}}, {"type": "node", "id": 973472346, "lat": 12.989865, "lon": 77.717934, "tags": {"addr:city": "Hoodi, Mahadevapura, Bangalore", "addr:postcode": "560048", "amenity": "pharmacy", "name": "SNR Pharmacy"}}, {"type": "node", "id": 975680681, "lat": 12.9559302, "lon": 77.7112689, "tags": {"addr:city": "Bangalore", "addr:street": "Varthur Road", "amenity": "hospital", "emergency": "yes", "healthcare": "hospital", "name": "Yashomathi Hospitals"}}, {"type": "node", "id": 980038314, "lat": 12.9855008, "lon": 77.718421, "tags": {"addr:city": "Hoodi, Mahadevapura, Bangalore", "addr:postcode": "560048", "amenity": "pharmacy", "dispensing": "no", "name": "Aruna Medicals"}}, {"type": "node", "id": 983942385, "lat": 12.9622669, "lon": 77.7014635, "tags": {"addr:city": "Doddanekundi, Marathahalli", "addr:street": "Outer Ring Road", "amenity": "cafe", "cuisine": "coffee_shop", "name": "The Coffee Brewery"}}, {"type": "node", "id": 983942391, "lat": 12.931753, "lon": 77.68645, "tags": {"addr:city": "Devara Bisnhalli, Bellandur", "addr:housenumber": "103", "addr:postcode": "560037", "amenity": "restaurant", "cuisine": "indian", "internet_access": "no", "name": "Eden Dhaba", "name:kn": "\u0c92\u0ca1\u0cc6\u0ca8\u0ccd \u0ca1\u0cbe\u0cac", "phone": "+91-80-65957659;+91-9342571046"}}, {"type": "node", "id": 984208326, "lat": 12.9497553, "lon": 77.6998051, "tags": {"addr:city": "Marathahalli, Bangalore", "addr:housenumber": "90/4 (1st Floor)", "addr:postcode": "560037", "addr:street": "Outer Ring Road", "amenity": "restaurant", "indoor_seating": "yes", "level": "1", "outdoor_seating": "no"}}, {"type": "node", "id": 985256304, "lat": 12.9858451, "lon": 77.6686567, "tags": {"addr:street": "Kaggadasspura Main Road", "amenity": "cafe", "brand": "Cafe Coffee Day", "brand:wikidata": "Q5017235", "cuisine": "coffee_shop", "name": "Cafe Coffee Day", "name:kn": "\u0c95\u0cab\u0cc6 \u0c95\u0cbe\u0cab\u0cbf \u0ca1\u0cc7", "takeaway": "yes"}}, {"type": "node", "id": 986744079, "lat": 12.973597, "lon": 77.678189, "tags": {"addr:street": "Kaggadasspura Main Road", "amenity": "restaurant", "cuisine": "indian", "name": "Ruchi Restaurant", "name:kn": "\u0cb0\u0cc1\u0c9a\u0cbf \u0cb0\u0cc6\u0cb8\u0ccd\u0c9f\u0ccb\u0cb0\u0cc6\u0c82\u0c9f\u0ccd"}}, {"type": "node", "id": 988724833, "lat": 12.9916553, "lon": 77.7207261, "tags": {"addr:housenumber": "956", "addr:postcode": "560048", "addr:street": "1st Floor, ITPL Main Road", "amenity": "restaurant", "cuisine": "indian", "name": "Chillys", "name:kn": "\u0c9a\u0cbf\u0cb2\u0ccd\u0cb2\u0cbf\u0cb8\u0ccd", "phone": "+91 80 41487799;+91 80 41725222"}}, {"type": "node", "id": 996176391, "lat": 12.989294, "lon": 77.7125997, "tags": {"addr:city": "Whitefield, Bangalore", "addr:housenumber": "11", "addr:street": "Hoodi Main Road", "amenity": "restaurant", "check_date": "2025-04-03", "cuisine": "indian", "name": "Bhagini Restaurant", "name:kn": "\u0cad\u0cbe\u0c97\u0cbf\u0ca8\u0cbf \u0cb0\u0cc6\u0cb8\u0ccd\u0c9f\u0ccb\u0cb0\u0cc6\u0c82\u0c9f\u0ccd", "phone": "+91-80-28540327"}}, {"type": "node", "id": 997417046, "lat": 12.9972009, "lon": 77.540616, "tags": {"addr:city": "Basaveshwara Nagar, Bangalore", "amenity": "restaurant", "brand": "Pizza Hut", "brand:wikidata": "Q191615", "cuisine": "pizza", "name": "Pizza Hut", "name:kn": "\u0caa\u0cbf\u0c9c\u0ccd\u0c9c\u0cbe \u0cb9\u0c9f\u0ccd", "operator": "Pizza Hut", "wheelchair": "no"}}, {"type": "node", "id": 1001584630, "lat": 12.9602864, "lon": 77.7136786, "tags": {"addr:street": "Arvind Avenue", "amenity": "pharmacy", "brand": "Apollo Pharmacy", "brand:wikidata": "Q62562612", "healthcare": "pharmacy", "name": "Apollo Pharmacy", "name:kn": "\u0c85\u0caa\u0ccb\u0cb2\u0ccb \u0cab\u0cbe\u0cb0\u0ccd\u0cae\u0cb8\u0cbf"}}, {"type": "node", "id": 1005544881, "lat": 12.9815051, "lon": 77.6011944, "tags": {"addr:city": "Bangalore", "addr:housenumber": "55", "addr:postcode": "560001", "addr:street": "Infantry Road", "amenity": "hospital", "email": "bengaluru@medinovaindia.com", "fax": "+918022867244", "name": "Mallya Audikesh Diagnostics Center", "phone": "+918022868423", "website": "http://www.medinovaindia.com"}}, {"type": "node", "id": 1006462338, "lat": 12.985247, "lon": 77.5803846, "tags": {"addr:city": "Bangalore", "addr:housenumber": "31/32", "addr:postcode": "560001", "addr:street": "Crescent Rd,Nehru Nagar,Gandhi Nagar", "amenity": "hospital", "name": "Mallige Medical Centre", "phone": "080 2220 3333", "website": "https://www.mallige.com/"}}, {"type": "node", "id": 1024506179, "lat": 12.9773708, "lon": 77.6954828, "tags": {"addr:city": "Doddanekundi, Marathahalli", "addr:housename": "Sri Kote Ashirwad Towers", "addr:housenumber": "27/7", "addr:postcode": "560037", "addr:street": "Outer Ring Road", "air_conditioning": "yes", "amenity": "restaurant", "diet:vegetarian": "yes", "indoor_seating": "yes", "name": "ArmaDQ", "outdoor_seating": "no", "payment:credit_cards": "yes", "payment:debit_cards": "yes"}}, {"type": "node", "id": 1024506184, "lat": 12.9805079, "lon": 77.6937246, "tags": {"addr:city": "Doddanekundi, Marathahalli", "addr:housenumber": "38/3", "addr:postcode": "560037", "addr:street": "Outer Ring Road", "air_conditioning": "yes", "amenity": "restaurant", "indoor_seating": "yes", "name": "BLR37 Bar & Kitchen", "outdoor_seating": "no"}}, {"type": "node", "id": 1024630290, "lat": 12.989268, "lon": 77.7125459, "tags": {"amenity": "bar", "check_date": "2025-04-03", "name": "Bhagini Bar"}}, {"type": "node", "id": 1026508950, "lat": 12.9881279, "lon": 77.5744324, "tags": {"amenity": "police", "check_date": "2024-03-02", "name": "Seshadripuram Police Station", "name:kn": "\u0cb6\u0cc7\u0cb6\u0cbe\u0ca6\u0ccd\u0cb0\u0cbf\u0caa\u0cc1\u0cb0\u0cae\u0ccd \u0c86\u0cb0\u0c95\u0ccd\u0cb7\u0c95 \u0ca0\u0cbe\u0ca3\u0cc6", "wheelchair": "no"}}, {"type": "node", "id": 1032697374, "lat": 12.9890678, "lon": 77.7116566, "tags": {"addr:street": "Hoodi Main Road", "amenity": "restaurant", "cuisine": "indian", "name": "Ankur Family Restaurant", "name:kn": "\u0c85\u0c82\u0c95\u0cc1\u0cb0\u0ccd \u0cab\u0ccd\u0caf\u0cbe\u0cae\u0cbf\u0cb2\u0cbf \u0cb0\u0cc6\u0cb8\u0ccd\u0c9f\u0ccb\u0cb0\u0cc6\u0c82\u0c9f\u0ccd"}}, {"type": "node", "id": 1040471275, "lat": 12.9922212, "lon": 77.7065535}, {"type": "node", "id": 1040471276, "lat": 12.992861, "lon": 77.7058913}, {"type": "node", "id": 1040471278, "lat": 12.9928423, "lon": 77.7063603}, {"type": "node", "id": 1040471280, "lat": 12.9921149, "lon": 77.7061156}, {"type": "node", "id": 1047248383, "lat": 12.9570571, "lon": 77.7091042, "tags": {"addr:city": "Marathhalli", "addr:postcode": "560037", "addr:street": "HAL Airport Road (near Marathahalli Bridge)", "amenity": "restaurant", "name": "Spice Garden", "name:kn": "\u0cb8\u0ccd\u0caa\u0cc8\u0cb8\u0ccd \u0c97\u0cbe\u0cb0\u0ccd\u0ca1\u0ca8\u0ccd", "phone": "+91-80-28476688;+91-80-65636522;+91-80-41705020", "wheelchair": "limited"}}, {"type": "node", "id": 1058729953, "lat": 12.9656267, "lon": 77.7018348, "tags": {"addr:city": "Doddanekundi, Bangalore", "addr:housename": "MR Kote Plaza", "addr:housenumber": "95/3", "addr:street": "Outer Ring Road", "amenity": "restaurant", "name": "Infusion Restaurant", "name:kn": "\u0c87\u0ca8\u0ccd\u200c\u0cab\u0ccd\u0caf\u0cc1\u0cb6\u0ca8\u0ccd \u0cb0\u0cc6\u0cb8\u0ccd\u0c9f\u0ccb\u0cb0\u0cc6\u0c82\u0c9f\u0ccd"}}, {"type": "node", "id": 1065137180, "lat": 12.9745381, "lon": 77.6096029, "tags": {"amenity": "restaurant", "cuisine": "indian", "internet_access": "no", "name": "Ullas Refreshment", "name:kn": "\u0c89\u0cb2\u0ccd\u0cb2\u0cbe\u0cb8\u0ccd \u0cb0\u0cbf\u0cab\u0ccd\u0cb0\u0cc6\u0cb6\u0ccd\u200c\u0cae\u0cc6\u0c82\u0c9f\u0ccd"}}, {"type": "node", "id": 1067181192, "lat": 13.0038999, "lon": 77.6039313, "tags": {"addr:district": "Bengaluru Urban", "addr:full": "110,6Th Main Iti Layout Benson Town Post", "addr:postcode": "560046", "addr:state": "Karnataka", "amenity": "hospital", "name": "Devine Hospital", "name:kn": "\u0ca1\u0cbf\u0cb5\u0cc8\u0ca8\u0ccd \u0c86\u0cb8\u0ccd\u0caa\u0ca4\u0ccd\u0cb0\u0cc6", "source": "OpenGovernmentData"}}, {"type": "node", "id": 1067181200, "lat": 13.0044271, "lon": 77.6037741, "tags": {"amenity": "pharmacy", "healthcare": "pharmacy", "name": "Vijay Medicals", "name:kn": "\u0cb5\u0cbf\u0c9c\u0caf\u0ccd \u0cae\u0cc6\u0ca1\u0cbf\u0c95\u0cb2\u0ccd\u0cb8\u0ccd"}}, {"type": "node", "id": 1067206582, "lat": 13.0015628, "lon": 77.5993592, "tags": {"addr:street": "Nandi Durg Road", "amenity": "restaurant", "name": "Elements", "name:kn": "\u0c8e\u0cb2\u0cbf\u0cae\u0cc6\u0c82\u0c9f\u0ccd\u0cb8\u0ccd"}}, {"type": "node", "id": 1067307517, "lat": 12.9192711, "lon": 77.6684296, "tags": {"addr:street": "Sarjapur Road", "amenity": "pharmacy", "healthcare": "pharmacy"}}, {"type": "node", "id": 1067331549, "lat": 12.9909412, "lon": 77.719748}, {"type": "node", "id": 1070361755, "lat": 12.934729, "lon": 77.6125976, "tags": {"addr:street": "80 Feet Road", "amenity": "restaurant", "cuisine": "chinese", "name": "Hungry Panda", "name:kn": "\u0cb9\u0c82\u0c97\u0ccd\u0cb0\u0cbf \u0caa\u0cbe\u0c82\u0ca1"}}, {"type": "node", "id": 1076571318, "lat": 12.9851522, "lon": 77.6737584, "tags": {"addr:street": "Kaggadasspura Main Road", "amenity": "pharmacy", "name": "Trust"}}, {"type": "node", "id": 1078161780, "lat": 12.9855001, "lon": 77.6732164, "tags": {"addr:street": "Kaggadasspura Main Road", "amenity": "restaurant", "name": "Reddys", "name:kn": "\u0cb0\u0cc6\u0ca1\u0ccd\u0ca1\u0cbf\u0cb8\u0ccd"}}, {"type": "node", "id": 1078369543, "lat": 12.980115, "lon": 77.6405511, "tags": {"addr:street": "100 Feet Road", "amenity": "restaurant", "cuisine": "indian", "name": "Kund", "name:kn": "\u0c95\u0cc1\u0c82\u0ca6\u0ccd"}}, {"type": "node", "id": 1078399227, "lat": 13.0302354, "lon": 77.5705086, "tags": {"addr:street": "New BEL Road", "amenity": "cafe", "brand": "Barista", "brand:wikidata": "Q644735", "cuisine": "coffee_shop", "name": "Barista", "name:kn": "\u0cac\u0cb0\u0cbf\u0cb8\u0ccd\u0c9f\u0cbe", "takeaway": "yes"}}, {"type": "node", "id": 1080536956, "lat": 12.9794141, "lon": 77.7513286, "tags": {"addr:city": "Bangalore", "addr:postcode": "560066", "addr:street": "Whitefield Main Road", "amenity": "cafe", "brand": "Cafe Coffee Day", "brand:wikidata": "Q5017235", "check_date": "2025-07-24", "cuisine": "coffee_shop", "level": "0", "name": "Cafe Coffee Day", "name:kn": "\u0c95\u0cab\u0cc6 \u0c95\u0cbe\u0cab\u0cbf \u0ca1\u0cc7", "phone": "+91-80-41641300", "takeaway": "yes", "wheelchair": "limited"}}, {"type": "node", "id": 1081506759, "lat": 12.9792064, "lon": 77.7513027, "tags": {"addr:city": "Bangalore", "addr:housenumber": "3/3", "addr:postcode": "560066", "addr:street": "Whitefield Main Road", "amenity": "restaurant", "check_date": "2025-07-24", "cuisine": "chinese", "name": "Chung WAH", "name:kn": "\u0c9a\u0c82\u0c97\u0ccd \u0cb5\u0cbe", "phone": "+91-80-41641300"}}, {"type": "node", "id": 1085786951, "lat": 12.9452313, "lon": 77.5861734, "tags": {"addr:street": "Siddapura Road", "amenity": "hospital", "name": "Lalbagh Nursing Home", "name:kn": "\u0cb2\u0cbe\u0cb2\u0ccd\u0cac\u0cbe\u0c97\u0ccd \u0ca8\u0cb0\u0ccd\u0cb8\u0cbf\u0c82\u0c97\u0ccd \u0cb9\u0ccb\u0c82"}}, {"type": "node", "id": 1085786985, "lat": 12.9753754, "lon": 77.6028942, "tags": {"addr:street": "Church Street", "amenity": "restaurant", "check_date": "2025-03-24", "name": "Highgates Hotel", "name:kn": "\u0cb9\u0cc8\u200c\u0c97\u0cc7\u0c9f\u0ccd\u0cb8\u0ccd \u0cb9\u0ccb\u0c9f\u0cc6\u0cb2\u0ccd", "website": "http://highgateshotel.com"}}, {"type": "node", "id": 1091213725, "lat": 12.9673994, "lon": 77.7146901, "tags": {"addr:city": "Bangalore", "addr:housenumber": "125", "addr:postcode": "560066", "addr:street": "Brookfield Main Road", "amenity": "restaurant", "cuisine": "indian;asian", "name": "Hotel Zaica", "name:kn": "\u0c9c\u0ccd\u0caf\u0cbe\u0c95", "phone": "+91-80-41162485"}}, {"type": "node", "id": 1091310741, "lat": 12.9377655, "lon": 77.6267552, "tags": {"addr:street": "80 Feet Road", "amenity": "restaurant", "name": "Gangothri Restaurant", "name:kn": "\u0c97\u0c82\u0c97\u0ccb\u0ca4\u0ccd\u0cb0\u0cbf \u0cb0\u0cc6\u0cb8\u0ccd\u0c9f\u0ccb\u0cb0\u0cc6\u0c82\u0c9f\u0ccd"}}, {"type": "node", "id": 1091310756, "lat": 12.9398542, "lon": 77.6251855, "tags": {"addr:street": "80 Feet Road", "amenity": "restaurant", "brand": "Pizza Hut", "brand:wikidata": "Q191615", "cuisine": "pizza", "name": "Pizza Hut", "name:kn": "\u0caa\u0cbf\u0c9f\u0ccd\u0cb8 \u0cb9\u0c9f\u0ccd"}}, {"type": "node", "id": 1091414246, "lat": 12.9594188, "lon": 77.6486258, "tags": {"amenity": "restaurant", "name": "Matthan", "name:kn": "\u0cae\u0ca4\u0ccd\u0ca4\u0ca8\u0ccd"}}, {"type": "node", "id": 1091417875, "lat": 12.9585862, "lon": 77.648591}, {"type": "node", "id": 1091417882, "lat": 12.958313, "lon": 77.6484841}, {"type": "node", "id": 1091417892, "lat": 12.9584826, "lon": 77.6476282}, {"type": "node", "id": 1093355140, "lat": 12.9800208, "lon": 77.7271185, "tags": {"addr:city": "Bangalore", "addr:postcode": "560066", "addr:street": "8th Road", "amenity": "restaurant", "cuisine": "chinese;thai", "name": "Beijing Bites", "name:kn": "\u0cac\u0cc0\u0c9c\u0cbf\u0c82\u0c97\u0ccd \u0cac\u0cc8\u0c9f\u0ccd\u0cb8\u0ccd", "phone": "+91-80-40930388;+91-80-40930488", "website": "https://www.beijingbites.com/"}}, {"type": "node", "id": 1093355151, "lat": 12.9716416, "lon": 77.7176798, "tags": {"addr:city": "Bangalore", "addr:housenumber": "23", "addr:postcode": "560066", "addr:street": "EPIP Zone, Whitefield", "amenity": "restaurant", "email": "info@themarkboulevard.com", "fax": "+91-80-41985556", "name": "The Mark Boulevard", "name:kn": "\u0ca6\u0cbf \u0cae\u0cbe\u0cb0\u0ccd\u0c95\u0ccd \u0cac\u0cca\u0cb2\u0cc6\u0cb5\u0cb0\u0ccd\u0ca1\u0ccd", "phone": "+91-80-41985555", "website": "http://www.themarkboulevard.com/"}}, {"type": "node", "id": 1093355153, "lat": 12.9797287, "lon": 77.7271089, "tags": {"amenity": "hospital", "name": "Dr. Batra Clinic"}}, {"type": "node", "id": 1096956219, "lat": 13.0147677, "lon": 77.5563618}, {"type": "node", "id": 1101607728, "lat": 12.9856254, "lon": 77.5788885, "tags": {"addr:street": "Kumara Krupa Road", "amenity": "restaurant", "check_date": "2024-12-22", "name": "Hotel Janardhana", "name:kn": "\u0c9c\u0ca8\u0cbe\u0cb0\u0ccd\u0ca7\u0ca8\u0ccd"}}, {"type": "node", "id": 1101622501, "lat": 12.9988604, "lon": 77.5817424, "tags": {"amenity": "hospital", "name": "Government Maternity Hospital", "name:kn": "\u0cb8\u0cb0\u0c95\u0cbe\u0cb0\u0cbf \u0cb9\u0cc6\u0cb0\u0cbf\u0c97\u0cc6 \u0c86\u0cb8\u0ccd\u0caa\u0ca4\u0ccd\u0cb0\u0cc6"}}, {"type": "node", "id": 1102898204, "lat": 12.9913671, "lon": 77.7209718, "tags": {"amenity": "nightclub"}}, {"type": "node", "id": 1107984443, "lat": 12.9672449, "lon": 77.5427653, "tags": {"amenity": "pharmacy", "name": "Vikas Medicals"}}, {"type": "node", "id": 1107986012, "lat": 12.9670358, "lon": 77.5428833, "tags": {"amenity": "pharmacy", "brand": "MedPlus", "brand:wikidata": "Q65684234", "healthcare": "pharmacy", "name": "MedPlus", "name:kn": "\u0cae\u0cc6\u0ca1\u0ccd\u200d\u0caa\u0ccd\u0cb2\u0cb8\u0ccd"}}, {"type": "node", "id": 1107995737, "lat": 12.9673021, "lon": 77.5421438, "tags": {"amenity": "cafe", "name": "Nature Fresh"}}, {"type": "node", "id": 1108014134, "lat": 12.9681189, "lon": 77.54325, "tags": {"amenity": "hospital", "emergency": "no", "name": "Soujanya Clinic"}}, {"type": "node", "id": 1108040901, "lat": 12.967291, "lon": 77.5429164, "tags": {"amenity": "hospital", "name": "Kanva Diagnostics Collection Centre"}}, {"type": "node", "id": 1116484556, "lat": 12.9853569, "lon": 77.5792692, "tags": {"addr:housenumber": "32/3", "addr:street": "Crescent Road", "amenity": "restaurant", "cuisine": "indian", "fax": "+91-80-41138488", "name": "Kabab Studio", "name:kn": "\u0c95\u0cac\u0cbe\u0cac\u0ccd \u0cb8\u0ccd\u0c9f\u0cc1\u0ca1\u0cbf\u0caf\u0cca", "phone": "+91-80-41291300", "website": "https://www.goldfinchhotels.com/"}}, {"type": "node", "id": 1118254826, "lat": 12.9883175, "lon": 77.5596746}, {"type": "node", "id": 1118255762, "lat": 12.9945063, "lon": 77.554298, "tags": {"amenity": "police", "check_date": "2025-03-18", "name": "Rajaji Nagar Police Station", "name:kn": "\u0cb0\u0cbe\u0c9c\u0cbe\u0c9c\u0cbf\u0ca8\u0c97\u0cb0 \u0c86\u0cb0\u0c95\u0ccd\u0cb7\u0c95 \u0ca0\u0cbe\u0ca3\u0cc6", "name:ta": "\u0bb0\u0bbe\u0b9c\u0bbe\u0b9c\u0bbf\u0ba8\u0b95\u0bb0 \u0b95\u0bbe\u0bb5\u0bb2\u0bcd \u0ba8\u0bbf\u0bb2\u0bc8\u0baf\u0bae\u0bcd"}}, {"type": "node", "id": 1118258254, "lat": 13.0066402, "lon": 77.554223}, {"type": "node", "id": 1121251409, "lat": 12.9823185, "lon": 77.5852805}, {"type": "node", "id": 1121251417, "lat": 12.9822, "lon": 77.5857603}, {"type": "node", "id": 1121420612, "lat": 12.9578638, "lon": 77.5932147, "tags": {"amenity": "restaurant", "name": "Foody's", "name:kn": "\u0cab\u0cc1\u0ca1\u0cc0\u0cb8\u0ccd"}}, {"type": "node", "id": 1129098580, "lat": 12.966942, "lon": 77.60796, "tags": {"amenity": "restaurant", "cuisine": "french", "name": "Olive Beach", "name:kn": "\u0c86\u0cb2\u0cc0\u0cb5\u0ccd \u0cac\u0cc0\u0c9a\u0ccd"}}, {"type": "node", "id": 1131031321, "lat": 12.9923399, "lon": 77.7060469, "tags": {"barrier": "gate"}}, {"type": "node", "id": 1131031330, "lat": 12.9926728, "lon": 77.7059451, "tags": {"barrier": "gate", "building": "entrance"}}, {"type": "node", "id": 1135052608, "lat": 12.9611813, "lon": 77.7054148, "tags": {"amenity": "pharmacy"}}, {"type": "node", "id": 1147232581, "lat": 12.9598295, "lon": 77.7475972, "tags": {"addr:street": "Forum Value Mall", "amenity": "cafe", "name": "5 Centrigrade"}}, {"type": "node", "id": 1147232608, "lat": 12.9598156, "lon": 77.7481385, "tags": {"addr:street": "Forum Value Mall", "amenity": "restaurant", "name": "MTR", "name:kn": "\u0c8e\u0c82\u0c9f\u0cbf\u0c86\u0cb0\u0ccd"}}, {"type": "node", "id": 1147232624, "lat": 12.9599141, "lon": 77.748448, "tags": {"addr:street": "Forum Value Mall", "amenity": "cafe", "cuisine": "ice_cream", "name": "Cream n Desserts"}}, {"type": "node", "id": 1147232651, "lat": 12.9598316, "lon": 77.7473381, "tags": {"addr:street": "Forum Value Mall", "amenity": "restaurant", "indoor_seating": "yes", "name": "Ala Dakshinapuramlo", "outdoor_seating": "no"}}, {"type": "node", "id": 1147232674, "lat": 12.9598229, "lon": 77.7479363, "tags": {"addr:street": "Forum Value Mall", "air_conditioning": "yes", "amenity": "restaurant", "indoor_seating": "yes", "name": "Pind Balluchi", "outdoor_seating": "no"}}, {"type": "node", "id": 1147294849, "lat": 12.9597243, "lon": 77.7484523, "tags": {"addr:street": "Forum Value Mall", "amenity": "cafe", "name": "Kalmane Koffee"}}, {"type": "node", "id": 1147294865, "lat": 12.9598943, "lon": 77.7481291, "tags": {"addr:street": "Forum Value Mall", "amenity": "restaurant", "name": "Toscano's", "name:kn": "\u0c9f\u0cca\u0cb8\u0ccd\u0c95\u0ca8\u0cca\u0cb8\u0ccd", "wheelchair": "yes"}}, {"type": "node", "id": 1150839598, "lat": 12.9568527, "lon": 77.6990468, "tags": {"addr:district": "Bengaluru Urban", "addr:full": "93/1, 565, Srinivasa Complex Ring Road Attached To Main Road", "addr:postcode": "560037", "addr:state": "Karnataka", "addr:street": "Varthur Road", "amenity": "hospital", "level": "0", "name": "New Akshay Mallya Hospital", "source": "OpenGovernmentData"}}, {"type": "node", "id": 1156832807, "lat": 12.9261691, "lon": 77.6803833, "tags": {"addr:housename": "The Bay Food Court", "addr:housenumber": "102", "addr:street": "Outer ring road, Bellandur", "amenity": "cafe", "brand": "Cafe Coffee Day", "brand:wikidata": "Q5017235", "brand:wikipedia": "en:Caf\u00e9 Coffee Day", "cuisine": "coffee_shop", "name": "Cafe Coffee Day", "name:kn": "\u0c95\u0cab\u0cc6 \u0c95\u0cbe\u0cab\u0cbf \u0ca1\u0cc7", "takeaway": "yes"}}, {"type": "node", "id": 1160603218, "lat": 12.9783158, "lon": 77.7123264, "tags": {"amenity": "cafe", "brand": "Cafe Coffee Day", "brand:wikidata": "Q5017235", "cuisine": "coffee_shop", "name": "Cafe Coffee Day", "name:kn": "\u0c95\u0cab\u0cc6 \u0c95\u0cbe\u0cab\u0cbf \u0ca1\u0cc7", "takeaway": "yes"}}, {"type": "node", "id": 1163058385, "lat": 12.9771241, "lon": 77.7184791, "tags": {"amenity": "cafe", "name": "Qmin"}}, {"type": "node", "id": 1166727536, "lat": 12.979486, "lon": 77.6951134, "tags": {"addr:floor": "0", "addr:street": "ORR Doddanakundi", "air_conditioning": "no", "amenity": "restaurant", "bar": "no", "check_date": "2024-09-20", "check_date:opening_hours": "2024-09-20", "diet:halal": "no", "diet:vegetarian": "only", "highchair": "no", "indoor_seating": "yes", "internet_access": "no", "microbrewery": "no", "name": "Sri Vishnu Palace", "opening_hours": "Mo-Su 07:00-23:00", "outdoor_seating": "no", "payment:cash": "yes", "payment:credit_cards": "yes", "payment:debit_cards": "yes", "payment:upi": "yes", "reservation": "no", "smoking": "no", "source": "survey", "takeaway": "yes", "wheelchair": "no"}}, {"type": "node", "id": 1166727541, "lat": 12.979298, "lon": 77.6951854, "tags": {"addr:floor": "1", "air_conditioning": "yes", "amenity": "restaurant", "bar": "no", "check_date": "2025-02-12", "cuisine": "indian", "diet:vegetarian": "yes", "highchair": "no", "indoor_seating": "yes", "internet_access": "no", "name": "Plate 99 Restaurant", "opening_hours": "Mo-Su 11:00-24:00", "outdoor_seating": "no", "payment:cards": "no", "payment:cash": "yes", "payment:credit_cards": "no", "payment:debit_cards": "no", "phone": "+91 85508 35554", "smoking": "no", "source": "survey", "toilets": "yes", "toilets:wheelchair": "no", "wheelchair": "no"}}, {"type": "node", "id": 1166727551, "lat": 12.9788613, "lon": 77.6946259, "tags": {"addr:street": "ORR  opposite bhagini", "amenity": "bar", "indoor_seating": "yes", "name": "Sarovar Portico", "outdoor_seating": "no"}}, {"type": "node", "id": 1168221740, "lat": 12.9570622, "lon": 77.7087772, "tags": {"amenity": "restaurant", "brand": "Pizza Hut", "brand:wikidata": "Q191615", "cuisine": "pizza", "name": "Pizza Hut", "name:kn": "\u0caa\u0cbf\u0c9f\u0ccd\u0cb8 \u0cb9\u0c9f\u0ccd", "smoking": "no"}}, {"type": "node", "id": 1186831410, "lat": 12.9951629, "lon": 77.69923, "tags": {"addr:street": "Whitefield Road", "amenity": "hospital", "name": "Presidency Hospital"}}, {"type": "node", "id": 1228960966, "lat": 12.90306, "lon": 77.4974982, "tags": {"addr:district": "Bengaluru Urban", "addr:full": "67, Uttarahalli Road, Kengeri", "addr:postcode": "560060", "addr:state": "Karnataka", "amenity": "hospital", "email": "web.enquiries@globalhospitalsindia.com", "healthcare": "hospital", "healthcare:speciality": "multi speciality", "name": "BGS Gleneagles Hospitals", "name:kn": "\u0cac\u0cbf\u0c9c\u0cbf\u0c8e\u0cb8\u0ccd \u0c86\u0cb8\u0ccd\u0caa\u0ca4\u0ccd\u0cb0\u0cc6", "operator:type": "private", "source": "OpenGovernmentData", "website": "https://bgsgleneaglesglobalhospitalbengaluru.com/"}}, {"type": "node", "id": 1272424543, "lat": 12.9073391, "lon": 77.5830655, "tags": {"addr:street": "29 Main", "address": "593 14th cross 29th main", "amenity": "hospital", "designation": "Clinic", "emergency": "no", "name": "Srinivas Clinic", "name:kn": "\u0cb6\u0ccd\u0cb0\u0cc0\u0ca8\u0cbf\u0cb5\u0cbe\u0cb8\u0ccd \u0c95\u0ccd\u0cb2\u0cbf\u0ca8\u0cbf\u0c95\u0ccd"}}, {"type": "node", "id": 1274328868, "lat": 12.9349444, "lon": 77.6293498, "tags": {"amenity": "cafe", "brand": "Barista", "brand:wikidata": "Q644735", "cuisine": "coffee_shop", "name": "Barista", "name:kn": "\u0cac\u0cb0\u0cbf\u0cb8\u0ccd\u0c9f", "takeaway": "yes"}}, {"type": "node", "id": 1274328878, "lat": 12.9355492, "lon": 77.6287026, "tags": {"amenity": "bar", "name": "Rendezvous"}}, {"type": "node", "id": 1283697988, "lat": 13.0226434, "lon": 77.6481609, "tags": {"amenity": "pharmacy", "dispensing": "yes", "name": "Trust Pharma"}}, {"type": "node", "id": 1289833985, "lat": 12.9982568, "lon": 77.5694946, "tags": {"alt_name": "CTR", "amenity": "restaurant", "cuisine": "regional", "diet:vegan": "yes", "diet:vegetarian": "only", "happycow:id": "82110", "name": "Shree Sagar CTR", "name:kn": "\u0cb6\u0ccd\u0cb0\u0cc0 \u0cb6\u0cbe\u0cb0\u0ca6 \u0cb8\u0cbe\u0c97\u0cb0\u0ccd", "old_name": "Central Tiffin Room", "start_date": "1920", "wikidata": "Q5061916", "wikipedia": "en:Central Tiffin Room Bangalore"}}, {"type": "node", "id": 1290107605, "lat": 13.0077106, "lon": 77.5640402, "tags": {"addr:city": "Bangalore", "addr:postcode": "560055", "addr:street": "8th Main Road", "amenity": "pharmacy", "dispensing": "yes", "name": "Sri Ganesh Medicals"}}, {"type": "node", "id": 1290125198, "lat": 13.0043642, "lon": 77.5652959, "tags": {"amenity": "hospital"}}, {"type": "node", "id": 1290125219, "lat": 13.0067295, "lon": 77.5642274, "tags": {"amenity": "pharmacy", "brand": "MedPlus", "brand:wikidata": "Q65684234", "healthcare": "pharmacy", "name": "MedPlus", "name:kn": "\u0cae\u0cc6\u0ca1\u0ccd\u200d\u0caa\u0ccd\u0cb2\u0cb8\u0ccd"}}, {"type": "node", "id": 1290203334, "lat": 13.0009296, "lon": 77.5723686, "tags": {"amenity": "restaurant", "diet:vegetarian": "only", "name": "Food Camp", "name:kn": "\u0cab\u0cc1\u0ca1\u0ccd \u0c95\u0ccd\u0caf\u0cbe\u0c82\u0caa\u0ccd"}}, {"type": "node", "id": 1290203344, "lat": 13.0010829, "lon": 77.5721394, "tags": {"amenity": "restaurant", "cuisine": "regional", "name": "Sri Sai Dosa Center", "name:kn": "\u0cb6\u0ccd\u0cb0\u0cc0 \u0cb8\u0cbe\u0caf\u0cbf \u0ca6\u0cca\u0cb8 \u0cb8\u0cc6\u0c82\u0c9f\u0cb0\u0ccd"}}, {"type": "node", "id": 1299725537, "lat": 13.0386192, "lon": 77.5896244, "tags": {"amenity": "police", "building": "yes", "name": "Hebbal Police Station", "name:kn": "\u0cb9\u0cc6\u0cac\u0ccd\u0cac\u0cbe\u0cb3 \u0c86\u0cb0\u0c95\u0ccd\u0cb7\u0c95 \u0ca0\u0cbe\u0ca3\u0cc6", "wheelchair": "no"}}, {"type": "node", "id": 1299901719, "lat": 12.913356, "lon": 77.651692, "tags": {"amenity": "cafe", "brand": "Cafe Coffee Day", "brand:wikidata": "Q5017235", "cuisine": "coffee_shop", "name": "Cafe Coffee Day", "name:kn": "\u0c95\u0cab\u0cc6 \u0c95\u0cbe\u0cab\u0cbf \u0ca1\u0cc7", "takeaway": "yes"}}, {"type": "node", "id": 1306431953, "lat": 12.9831559, "lon": 77.5987115, "tags": {"addr:housenumber": "21/1", "addr:street": "Cunningham Road", "amenity": "restaurant", "cuisine": "indian", "full_name": "Eden Park Bar And Restaurant", "name": "Eden Park", "name:kn": "\u0c8e\u0ca1\u0cbf\u0ca8\u0ccd \u0caa\u0cbe\u0cb0\u0ccd\u0c95\u0ccd \u0cac\u0cbe\u0cb0\u0ccd \u0cae\u0ca4\u0ccd\u0ca4\u0cc1 \u0cb0\u0cc6\u0cb8\u0ccd\u0c9f\u0ccb\u0cb0\u0cc6\u0c82\u0c9f\u0ccd"}}, {"type": "node", "id": 1307443105, "lat": 12.9344118, "lon": 77.6109865, "tags": {"addr:city": "Bangalore", "addr:housename": "Forum Mall", "addr:street": "Hosur Road", "amenity": "cafe", "brand": "Cafe Coffee Day", "brand:wikidata": "Q5017235", "cuisine": "coffee_shop", "internet_access": "wlan", "name": "Cafe Coffee Day", "name:kn": "\u0c95\u0cab\u0cc6 \u0c95\u0cbe\u0cab\u0cbf \u0ca1\u0cc7", "takeaway": "yes"}}, {"type": "node", "id": 1307450638, "lat": 12.9180833, "lon": 77.6515737, "tags": {"addr:postcode": "560102", "addr:street": "27th main", "amenity": "pharmacy", "check_date": "2024-12-29", "dispensing": "yes", "healthcare": "pharmacy", "name": "Shivakumar Medicals & General Store"}}, {"type": "node", "id": 1307598703, "lat": 12.9833885, "lon": 77.5950608}, {"type": "node", "id": 1307598721, "lat": 12.9823242, "lon": 77.594716, "tags": {"addr:street": "Dr B R Ambedkar Veedhi", "amenity": "cafe", "name": "India Coffee House", "name:kn": "\u0c87\u0c82\u0ca1\u0cbf\u0caf\u0cbe \u0c95\u0cbe\u0cab\u0cbf \u0cb9\u0ccc\u0cb8\u0ccd"}}, {"type": "node", "id": 1309873534, "lat": 12.9824124, "lon": 77.7307563}, {"type": "node", "id": 1309873536, "lat": 12.9834331, "lon": 77.7286515}, {"type": "node", "id": 1318917183, "lat": 12.9040043, "lon": 77.5734008, "tags": {"amenity": "restaurant", "brand": "Pizza Hut", "brand:wikidata": "Q191615", "cuisine": "pizza", "name": "Pizza Hut", "name:kn": "\u0caa\u0cbf\u0c9f\u0ccd\u0cb8 \u0cb9\u0c9f\u0ccd"}}, {"type": "node", "id": 1318917184, "lat": 12.8853559, "lon": 77.5554648, "tags": {"amenity": "bar", "name": "Shiva Bar"}}, {"type": "node", "id": 1318987638, "lat": 12.8915893, "lon": 77.560715, "tags": {"amenity": "hospital", "emergency": "yes", "name": "Metro Hospital"}}, {"type": "node", "id": 1328593762, "lat": 12.9741202, "lon": 77.653743, "tags": {"amenity": "cafe", "name": "Coffeeday Xpress"}}, {"type": "node", "id": 1328610588, "lat": 12.9793502, "lon": 77.6421411, "tags": {"amenity": "restaurant", "name": "Sue's Kitchen", "name:kn": "\u0cb8\u0cc2\u0cb8\u0ccd \u0c95\u0cbf\u0c9a\u0ca8\u0ccd"}}, {"type": "node", "id": 1328610672, "lat": 12.9787344, "lon": 77.6451837, "tags": {"amenity": "pharmacy"}}, {"type": "node", "id": 1328613155, "lat": 12.9621543, "lon": 77.6418716, "tags": {"amenity": "restaurant", "name": "Mainland China", "name:kn": "\u0cae\u0cc7\u0ca8\u0ccd\u200c\u0cb2\u0ccd\u0caf\u0cbe\u0c82\u0ca1\u0ccd \u0c9a\u0cc8\u0ca8\u0cbe", "wheelchair": "limited"}}, {"type": "node", "id": 1328615137, "lat": 12.9370423, "lon": 77.6245906, "tags": {"amenity": "restaurant", "name": "Coast to Coast Sea food restaurant", "name:kn": "\u0c95\u0ccb\u0cb8\u0ccd\u0c9f\u0ccd \u0c9f\u0cc1 \u0c95\u0ccb\u0cb8\u0ccd\u0c9f\u0ccd \u0cb8\u0cc0 \u0cab\u0cc1\u0ca1\u0ccd \u0cb0\u0cc6\u0cb8\u0ccd\u0c9f\u0ccb\u0cb0\u0cc6\u0c82\u0c9f\u0ccd"}}, {"type": "node", "id": 1328615138, "lat": 12.9342471, "lon": 77.6234716, "tags": {"amenity": "restaurant", "name": "Tamrind Restaurant", "name:kn": "\u0c9f\u0ccd\u0caf\u0cbe\u0cae\u0cb0\u0cbf\u0c82\u0ca1\u0ccd \u0cb0\u0cc6\u0cb8\u0ccd\u0c9f\u0ccb\u0cb0\u0cc6\u0c82\u0c9f\u0ccd"}}, {"type": "node", "id": 1328615139, "lat": 12.9370998, "lon": 77.6245424, "tags": {"amenity": "restaurant", "name": "Kubey Seafood Restaurant", "name:kn": "\u0c95\u0cc1\u0cac\u0cc6 \u0cb8\u0cc0\u0cab\u0cc1\u0c82\u0ca1\u0ccd \u0cb0\u0cc6\u0cb8\u0ccd\u0c9f\u0ccb\u0cb0\u0cc6\u0c82\u0c9f\u0ccd"}}, {"type": "node", "id": 1328617013, "lat": 12.9701421, "lon": 77.6314807, "tags": {"addr:street": "Sai Baba Mandira Road", "amenity": "pharmacy", "name": "Health and Glow"}}, {"type": "node", "id": 1331929309, "lat": 12.9089347, "lon": 77.5626077, "tags": {"amenity": "cafe", "cuisine": "ice_cream", "internet_access": "no", "name": "Polar Bear"}}, {"type": "node", "id": 1331929349, "lat": 12.9053733, "lon": 77.5628082}, {"type": "node", "id": 1331929352, "lat": 12.9075699, "lon": 77.5640131, "tags": {"amenity": "restaurant", "cuisine": "regional", "delivery": "yes", "name": "Udupi Swada", "outdoor_seating": "yes", "reservation": "no", "takeaway": "yes"}}, {"type": "node", "id": 1331929354, "lat": 12.9089138, "lon": 77.5625218, "tags": {"amenity": "cafe", "cuisine": "coffee_shop", "name": "NJAC"}}, {"type": "node", "id": 1331946750, "lat": 12.9111686, "lon": 77.5795767}, {"type": "node", "id": 1331946751, "lat": 12.9110875, "lon": 77.5799978}, {"type": "node", "id": 1331946754, "lat": 12.9109843, "lon": 77.5791221, "tags": {"amenity": "restaurant", "cuisine": "indian", "name": "Prasiddhi", "name:kn": "\u0caa\u0ccd\u0cb0\u0cb8\u0cbf\u0ca6\u0ccd\u0ca7\u0cbf"}}, {"type": "node", "id": 1331946769, "lat": 12.9108601, "lon": 77.5800058}, {"type": "node", "id": 1331946771, "lat": 12.9109254, "lon": 77.5795391}, {"type": "node", "id": 1331946776, "lat": 12.9056456, "lon": 77.5855728, "tags": {"amenity": "restaurant", "cuisine": "indian", "name": "Nandhini Deluxe", "name:kn": "\u0ca8\u0c82\u0ca6\u0cbf\u0ca8\u0cbf \u0ca1\u0cbf\u0cb2\u0c95\u0ccd\u0cb8\u0ccd"}}, {"type": "node", "id": 1331989779, "lat": 12.9027732, "lon": 77.5837541, "tags": {"amenity": "restaurant", "cuisine": "indian", "name": "Incara", "name:kn": "\u0c87\u0c82\u0c9a\u0cb0"}}, {"type": "node", "id": 1339408167, "lat": 12.9690594, "lon": 77.6479877, "tags": {"addr:street": "80 Feet Road(Sir C.V. Raman Hospital Road)", "amenity": "restaurant", "cuisine": "chinese", "diet:vegetarian": "yes", "indoor_seating": "yes", "name": "Beijing Bites", "name:kn": "\u0cac\u0cc0\u0c9c\u0cbf\u0c82\u0c97\u0ccd \u0cac\u0cc8\u0c9f\u0ccd\u0cb8\u0ccd", "outdoor_seating": "no"}}, {"type": "node", "id": 1339413322, "lat": 12.9725356, "lon": 77.6511018, "tags": {"amenity": "pharmacy", "check_date": "2024-11-23", "healthcare": "pharmacy", "name": "Sri Vinayaka Medicals", "phone": "+91 84531 18830"}}, {"type": "node", "id": 1339731852, "lat": 12.909578, "lon": 77.5641601, "tags": {"amenity": "pharmacy", "brand": "Apollo Pharmacy", "brand:wikidata": "Q62562612", "dispensing": "yes", "healthcare": "pharmacy", "name": "Apollo Pharmacy", "name:kn": "\u0c85\u0caa\u0ccb\u0cb2\u0ccb \u0cab\u0cbe\u0cb0\u0ccd\u0cae\u0cb8\u0cbf"}}, {"type": "node", "id": 1360190627, "lat": 12.9363255, "lon": 77.5767626, "tags": {"addr:housenumber": "19/2", "addr:street": "South End Main Road", "alt_name": "Upahara Darshini", "amenity": "restaurant", "cuisine": "regional", "name": "U D Residency", "name:kn": "\u0caf\u0cc1 \u0ca1\u0cbf \u0cb0\u0cc6\u0cb8\u0cbf\u0ca1\u0cc6\u0ca8\u0ccd\u0cb8\u0cbf"}}, {"type": "node", "id": 1363280651, "lat": 12.963223, "lon": 77.7171829, "tags": {"amenity": "cafe", "brand": "Third Wave Coffee Roasters", "brand:wikidata": "Q137711794", "check_date": "2025-10-28", "cuisine": "coffee_shop", "delivery": "yes", "indoor_seating": "yes", "name": "Third Wave Coffee Roasters", "name:kn": "\u0c95\u0cab\u0cc6 \u0c95\u0cbe\u0cab\u0cbf \u0ca1\u0cc7", "outdoor_seating": "yes", "takeaway": "yes"}}, {"type": "node", "id": 1363295015, "lat": 12.9897809, "lon": 77.5880062, "tags": {"amenity": "cafe", "name": "NGMA Cafe"}}, {"type": "node", "id": 1365660975, "lat": 12.9568655, "lon": 77.7153884, "tags": {"amenity": "restaurant", "name": "Bhagini", "name:kn": "\u0cad\u0c97\u0cbf\u0ca8\u0cbf"}}, {"type": "node", "id": 1365797741, "lat": 12.9586563, "lon": 77.7134009}, {"type": "node", "id": 1365797746, "lat": 12.9562964, "lon": 77.7141388}, {"type": "node", "id": 1365797756, "lat": 12.9668213, "lon": 77.7168891, "tags": {"addr:district": "Bengaluru Urban", "addr:full": "521, 522, Vijayalakshmi Square Itpl Main Road Kundallahall Near Cosmos Mall", "addr:postcode": "560037", "addr:state": "Karnataka", "amenity": "hospital", "emergency": "yes", "healthcare": "hospital", "name": "Brookefield Hospital(A Unit Of Sanjeevani Hospital)", "source": "OpenGovernmentData", "wheelchair": "yes"}}, {"type": "node", "id": 1365797761, "lat": 12.9585004, "lon": 77.7128362}, {"type": "node", "id": 1365797762, "lat": 12.9561646, "lon": 77.713565}, {"type": "node", "id": 1366802622, "lat": 12.9658455, "lon": 77.7184852, "tags": {"amenity": "pharmacy", "name": "Laksmi Medical"}}, {"type": "node", "id": 1366802631, "lat": 12.9663904, "lon": 77.718256, "tags": {"amenity": "pharmacy", "name": "Satya Sai Medicals"}}, {"type": "node", "id": 1366802650, "lat": 12.9674469, "lon": 77.7166937, "tags": {"amenity": "pharmacy", "name": "Pavan Medical"}}, {"type": "node", "id": 1368117353, "lat": 12.9590636, "lon": 77.7468962}, {"type": "node", "id": 1370044258, "lat": 12.9775622, "lon": 77.7133834}, {"type": "node", "id": 1370044317, "lat": 12.9776143, "lon": 77.7132389}, {"type": "node", "id": 1370044355, "lat": 12.977657, "lon": 77.7129587}, {"type": "node", "id": 1370044367, "lat": 12.9777004, "lon": 77.7131693}, {"type": "node", "id": 1370044419, "lat": 12.9776482, "lon": 77.7128562}, {"type": "node", "id": 1370044480, "lat": 12.9774211, "lon": 77.7133611}, {"type": "node", "id": 1370044609, "lat": 12.9775818, "lon": 77.7132334}, {"type": "node", "id": 1370044725, "lat": 12.9776237, "lon": 77.7131626}, {"type": "node", "id": 1370044830, "lat": 12.9777134, "lon": 77.7130837}, {"type": "node", "id": 1370044887, "lat": 12.9775073, "lon": 77.7128334}, {"type": "node", "id": 1370044949, "lat": 12.977642, "lon": 77.7130734}, {"type": "node", "id": 1370045059, "lat": 12.97763, "lon": 77.7129552},